ano.x,uf,ugrhi,municipio,codigo_ibge,populacao_urbana,atendimento_coleta_porc,atendimento_tratamento_porc,eficiencia,carga_poluidora_potencial,carga_poluidora_remancescente,ictem,ano.y,muni_nm,uf_sigla,regiao_nm,idhm,idhm_e,idhm_l,idhm_r,espvida,rdpc,gini,pop,lat,lon
2022,SP,1,Campos do Jordão,3509700,52384,52.6,100,93,2829,1445,5.97,2010,CAMPOS DO JORDÃO,SP,Sudeste,0.749,0.648,0.852,0.761,76.1,911.4,0.59,47287,-22.739,-45.591
2022,SP,1,Santo Antônio do Pinhal,3548203,4067,46.7,100,80,220,138,4.63,2010,SANTO ANTÔNIO DO PINHAL,SP,Sudeste,0.706,0.632,0.812,0.685,73.69,569.08,0.47,6450,-22.827,-45.663
2022,SP,1,São Bento do Sapucaí,3548609,5251,98,100,91.3,284,30,9.97,2010,SÃO BENTO DO SAPUCAÍ,SP,Sudeste,0.72,0.638,0.812,0.719,73.69,701.89,0.55,10370,-22.689,-45.731
2022,SP,2,Aparecida,3502507,35684,70,0,0,1927,1927,1.55,2010,APARECIDA,SP,Sudeste,0.755,0.706,0.828,0.735,74.67,775.17,0.46,34630,-22.847,-45.23
2022,SP,2,Arapeí,3503158,1844,95.6,95.6,99,100,9,9.86,2010,ARAPEÍ,SP,Sudeste,0.68,0.612,0.812,0.634,73.72,414.19,0.39,2481,-22.674,-44.448
2022,SP,2,Areias,3503505,2619,100,0,0,141,141,1.5,2010,AREIAS,SP,Sudeste,0.697,0.672,0.803,0.627,73.18,396.78,0.44,3632,-22.58,-44.697
2022,SP,2,Bananal,3504909,8808,88.1,100,75,476,161,7.61,2010,BANANAL,SP,Sudeste,0.733,0.653,0.872,0.693,77.29,595.74,0.51,10101,-22.684,-44.323
2022,SP,2,Caçapava,3508504,81929,100,99.5,58.3,4424,1858,7.26,2010,CAÇAPAVA,SP,Sudeste,0.788,0.755,0.858,0.754,76.5,871.87,0.5,84338,-23.101,-45.707
2022,SP,2,Cachoeira Paulista,3508603,27623,100,100,87.2,1492,191,9.7,2010,CACHOEIRA PAULISTA,SP,Sudeste,0.764,0.728,0.837,0.733,75.19,764.6,0.52,29894,-22.665,-45.009
2022,SP,2,Canas,3509957,4890,84.6,100,89,264,65,8.16,2010,CANAS,SP,Sudeste,0.704,0.677,0.797,0.646,72.83,444.72,0.43,4384,-22.704,-45.055
2022,SP,2,Cruzeiro,3513405,80783,74.3,6.2,67.6,4362,4226,1.41,2010,CRUZEIRO,SP,Sudeste,0.788,0.758,0.871,0.742,77.28,809.24,0.53,76857,-22.576,-44.963
2022,SP,2,Cunha,3513603,11893,90,16,34.7,642,610,1.91,2010,CUNHA,SP,Sudeste,0.684,0.576,0.826,0.672,74.54,525.19,0.54,21516,-23.074,-44.96
2022,SP,2,Guararema,3518305,26217,60.4,100,70.4,1416,814,5.67,2010,GUARAREMA,SP,Sudeste,0.731,0.656,0.817,0.729,74.03,748.79,0.47,25662,-23.415,-46.035
2022,SP,2,Guaratinguetá,3518404,117355,98.2,47.2,50.4,6337,4856,3.9,2010,GUARATINGUETÁ,SP,Sudeste,0.798,0.751,0.886,0.764,78.17,926.78,0.54,111477,-22.816,-45.193
2022,SP,2,Igaratá,3520202,7640,30.7,100,80.1,413,311,3.76,2010,IGARATÁ,SP,Sudeste,0.711,0.616,0.855,0.683,76.28,561.31,0.41,8772,-23.204,-46.156
2022,SP,2,Jacareí,3524402,233844,98.2,99.1,77.5,12628,3108,8.36,2010,JACAREÍ,SP,Sudeste,0.777,0.749,0.837,0.749,75.2,846.53,0.49,210649,-23.305,-45.966
2022,SP,2,Jambeiro,3524907,3269,100,100,96,177,7,9.7,2010,JAMBEIRO,SP,Sudeste,0.756,0.69,0.86,0.727,76.61,738.52,0.49,5330,-23.254,-45.688
2022,SP,2,Lagoinha,3526308,3165,83.5,100,97,171,32,9.45,2010,LAGOINHA,SP,Sudeste,0.693,0.609,0.797,0.686,72.82,573.28,0.48,4789,-23.091,-45.19
2022,SP,2,Lavrinhas,3526605,6757,73.2,88.3,38.8,365,273,4.55,2010,LAVRINHAS,SP,Sudeste,0.729,0.707,0.823,0.665,74.38,500.59,0.55,6437,-22.571,-44.902
2022,SP,2,Lorena,3527207,86968,99.6,100,65.7,4696,1623,7.74,2010,LORENA,SP,Sudeste,0.766,0.713,0.856,0.736,76.35,781.28,0.52,82078,-22.731,-45.125
2022,SP,2,Monteiro Lobato,3531704,2045,84.4,100,73.4,110,42,7.3,2010,MONTEIRO LOBATO,SP,Sudeste,0.71,0.627,0.826,0.692,74.53,593.95,0.48,4095,-22.957,-45.84
2022,SP,2,Natividade da Serra,3532306,2765,96,50,12,149,141,2.86,2010,NATIVIDADE DA SERRA,SP,Sudeste,0.655,0.52,0.814,0.664,73.86,496.93,0.51,6500,-23.376,-45.442
2022,SP,2,Paraibuna,3535606,5518,68,40,97,298,219,3.83,2010,PARAIBUNA,SP,Sudeste,0.719,0.642,0.815,0.709,73.91,657.59,0.51,17136,-23.386,-45.662
2022,SP,2,Pindamonhangaba,3538006,165703,100,100,70.2,8948,2666,7.76,2010,PINDAMONHANGABA,SP,Sudeste,0.773,0.736,0.843,0.745,75.58,826.02,0.52,146323,-22.924,-45.462
2022,SP,2,Piquete,3538501,12639,84.3,0,0,683,683,1.26,2010,PIQUETE,SP,Sudeste,0.757,0.74,0.823,0.711,74.38,665.74,0.49,14002,-22.614,-45.176
2022,SP,2,Potim,3540754,19415,85,10,31,1048,1021,1.6,2010,POTIM,SP,Sudeste,0.697,0.646,0.806,0.651,73.38,460.22,0.37,16751,-22.843,-45.251
2022,SP,2,Queluz,3541901,11308,77.2,85,93,611,238,6.71,2010,QUELUZ,SP,Sudeste,0.722,0.687,0.823,0.665,74.38,500.25,0.46,10552,-22.537,-44.774
2022,SP,2,Redenção da Serra,3542305,2187,44.3,100,89,118,72,4.92,2010,REDENÇÃO DA SERRA,SP,Sudeste,0.657,0.56,0.799,0.633,72.95,411.77,0.45,3749,-23.267,-45.537
2022,SP,2,Roseira,3544301,10340,93.6,100,70.5,558,190,7.39,2010,ROSEIRA,SP,Sudeste,0.737,0.704,0.823,0.691,74.38,588.39,0.43,9519,-22.898,-45.305
2022,SP,2,Santa Branca,3546009,13165,64,5,60,711,697,1.66,2010,SANTA BRANCA,SP,Sudeste,0.735,0.678,0.828,0.706,74.68,645.59,0.47,13699,-23.397,-45.884
2022,SP,2,Santa Isabel,3546801,45928,57.3,5,80,2480,2423,1.59,2010,SANTA ISABEL,SP,Sudeste,0.738,0.689,0.834,0.7,75.02,623.11,0.45,49899,-23.316,-46.221
2022,SP,2,São José do Barreiro,3549607,2914,84.7,0,0,157,157,1.27,2010,SÃO JOSÉ DO BARREIRO,SP,Sudeste,0.684,0.591,0.813,0.666,73.8,506.16,0.55,4008,-22.645,-44.578
2022,SP,2,São José dos Campos,3549904,722310,94.4,99.2,87,39005,7243,9.91,2010,SÃO JOSÉ DOS CAMPOS,SP,Sudeste,0.807,0.764,0.855,0.804,76.27,1190.96,0.55,627677,-23.179,-45.887
2022,SP,2,São Luís do Paraitinga,3550001,6356,88.3,100,95.9,343,53,9.82,2010,SÃO LUÍS DO PARAITINGA,SP,Sudeste,0.697,0.593,0.826,0.691,74.54,590.68,0.48,10317,-23.222,-45.31
2022,SP,2,Silveiras,3552007,3169,95.9,100,90,171,23,9.94,2010,SILVEIRAS,SP,Sudeste,0.678,0.584,0.812,0.657,73.72,475.69,0.48,5748,-22.664,-44.853
2022,SP,2,Taubaté,3554102,313898,100,100,97.9,16950,356,9.8,2010,TAUBATÉ,SP,Sudeste,0.8,0.746,0.883,0.778,77.98,1011.95,0.51,276183,-23.026,-45.555
2022,SP,2,Tremembé,3554805,43465,98.6,100,98,2347,79,9.78,2010,TREMEMBÉ,SP,Sudeste,0.785,0.72,0.873,0.769,77.38,959.88,0.53,37302,-22.958,-45.549
2022,SP,3,Caraguatatuba,3510500,120021,78.6,100,84.5,6481,2177,7.5,2010,CARAGUATATUBA,SP,Sudeste,0.759,0.705,0.845,0.735,75.68,773.99,0.5,99827,-23.62,-45.413
2022,SP,3,Ilhabela,3520400,35945,40.5,NA,NA,1941,NA,3.59,2010,ILHABELA,SP,Sudeste,0.756,0.693,0.843,0.739,75.56,794.57,0.49,27892,-23.778,-45.358
2022,SP,3,São Sebastião,3550704,90605,44.6,98.2,90.9,4893,2946,5.23,2010,SÃO SEBASTIÃO,SP,Sudeste,0.772,0.703,0.875,0.747,77.51,837.48,0.49,73523,-23.76,-45.41
2022,SP,3,Ubatuba,3555406,90588,34.7,99,70.2,4892,3712,4.08,2010,UBATUBA,SP,Sudeste,0.751,0.679,0.841,0.741,75.47,803.5,0.58,78243,-23.434,-45.071
2022,SP,4,Altinópolis,3501004,14172,100,100,51,765,375,6.82,2010,ALTINÓPOLIS,SP,Sudeste,0.73,0.635,0.843,0.726,75.57,731.49,0.45,15527,-21.026,-47.374
2022,SP,4,Brodowski,3507803,24986,99,100,78.5,1349,301,8.54,2010,BRODOWSKI,SP,Sudeste,0.755,0.675,0.864,0.738,76.81,787.91,0.44,21023,-20.991,-47.659
2022,SP,4,Caconde,3508702,12975,100,0,0,701,701,1.5,2010,CACONDE,SP,Sudeste,0.72,0.62,0.858,0.701,76.45,627,0.5,18414,-21.529,-46.644
2022,SP,4,Cajuru,3509403,23680,96.4,100,86,1279,219,9.95,2010,CAJURU,SP,Sudeste,0.713,0.633,0.825,0.693,74.52,597.11,0.4,23252,-21.275,-47.304
2022,SP,4,Casa Branca,3510807,25075,100,95,93,1354,158,9.63,2010,CASA BRANCA,SP,Sudeste,0.73,0.64,0.835,0.727,75.08,737.96,0.49,25960,-21.774,-47.086
2022,SP,4,Cássia dos Coqueiros,3510906,1696,91.4,100,80,92,25,8.12,2010,CÁSSIA DOS COQUEIROS,SP,Sudeste,0.734,0.673,0.864,0.68,76.81,551.4,0.43,2618,-21.283,-47.17
2022,SP,4,Cravinhos,3513108,34965,99,99,73,1888,537,7.83,2010,CRAVINHOS,SP,Sudeste,0.756,0.683,0.857,0.737,76.44,784.4,0.42,31565,-21.34,-47.729
2022,SP,4,Divinolândia,3513900,7379,85.2,88,88,398,136,7.06,2010,DIVINOLÂNDIA,SP,Sudeste,0.734,0.645,0.85,0.72,75.97,707.97,0.48,11003,-21.661,-46.739
2022,SP,4,Itobi,3523800,7085,88.5,100,85.6,383,93,8.25,2010,ITOBI,SP,Sudeste,0.717,0.646,0.82,0.697,74.19,611.41,0.41,7471,-21.737,-46.975
2022,SP,4,Jardinópolis,3525102,43706,100,0,0,2360,2360,1.5,2010,JARDINÓPOLIS,SP,Sudeste,0.735,0.64,0.853,0.728,76.15,742.74,0.48,37497,-21.018,-47.764
2022,SP,4,Mococa,3530508,63715,99,100,86.6,3441,491,9.99,2010,MOCOCA,SP,Sudeste,0.762,0.709,0.827,0.756,74.63,881.99,0.53,65734,-21.468,-47.005
2022,SP,4,Ribeirão Preto,3543402,718072,99.5,94,93.5,38776,4866,9.9,2010,RIBEIRÃO PRETO,SP,Sudeste,0.8,0.739,0.844,0.82,75.65,1314.04,0.54,598544,-21.178,-47.81
2022,SP,4,Sales Oliveira,3544905,10959,99.2,100,76.4,592,143,8.42,2010,SALES OLIVEIRA,SP,Sudeste,0.772,0.739,0.845,0.738,75.71,789.73,0.43,10538,-20.772,-47.838
2022,SP,4,Santa Cruz da Esperança,3546256,1467,100,100,72,79,22,8.18,2010,SANTA CRUZ DA ESPERANÇA,SP,Sudeste,0.743,0.686,0.832,0.719,74.89,700.57,0.53,1947,-21.291,-47.43
2022,SP,4,Santa Rosa de Viterbo,3547601,25700,96.2,100,73.5,1388,407,8.04,2010,SANTA ROSA DE VITERBO,SP,Sudeste,0.77,0.704,0.868,0.746,77.1,829.2,0.5,23703,-21.473,-47.363
2022,SP,4,São José do Rio Pardo,3549706,48968,100,12,38.5,2644,2522,2.28,2010,SÃO JOSÉ DO RIO PARDO,SP,Sudeste,0.774,0.717,0.868,0.744,77.05,818.61,0.49,51520,-21.596,-46.889
2022,SP,4,São Sebastião da Grama,3550803,7996,96.9,99,83,432,88,8.62,2010,SÃO SEBASTIÃO DA GRAMA,SP,Sudeste,0.701,0.609,0.82,0.689,74.19,581.04,0.41,12010,-21.711,-46.821
2022,SP,4,São Simão,3550902,13919,100,0,0,752,752,1.5,2010,SÃO SIMÃO,SP,Sudeste,0.766,0.722,0.852,0.732,76.11,761.14,0.45,14300,-21.479,-47.551
2022,SP,4,Serra Azul,3551405,10892,92.8,100,90,588,97,9.89,2010,SERRA AZUL,SP,Sudeste,0.686,0.572,0.81,0.697,73.6,613.57,0.45,8791,-21.311,-47.566
2022,SP,4,Serrana,3551504,45677,100,100,78,2467,543,8.57,2010,SERRANA,SP,Sudeste,0.729,0.65,0.835,0.713,75.08,677.75,0.37,38734,-21.211,-47.596
2022,SP,4,Tambaú,3553302,20663,100,100,63,1116,413,7.3,2010,TAMBAÚ,SP,Sudeste,0.731,0.624,0.858,0.729,76.45,747.11,0.45,22289,-21.705,-47.274
2022,SP,4,Tapiratiba,3553609,10671,91.7,40,80.7,576,406,4.4,2010,TAPIRATIBA,SP,Sudeste,0.751,0.692,0.87,0.703,77.18,637.12,0.4,12711,-21.468,-46.749
2022,SP,4,Vargem Grande do Sul,3556404,41168,100,95,55,2223,1062,6.83,2010,VARGEM GRANDE DO SUL,SP,Sudeste,0.737,0.643,0.863,0.721,76.78,711.6,0.42,39144,-21.832,-46.894
2022,SP,5,Águas de São Pedro,3500600,3588,96.5,100,84,194,37,9.65,2010,ÁGUAS DE SÃO PEDRO,SP,Sudeste,0.854,0.825,0.89,0.849,78.37,1580.72,0.54,2680,-22.599,-47.876
2022,SP,5,Americana,3501608,243228,95.7,100,44.4,13134,7555,5.9,2010,AMERICANA,SP,Sudeste,0.811,0.76,0.876,0.8,77.55,1161.68,0.47,209811,-22.739,-47.331
2022,SP,5,Amparo,3501905,57569,95,53,79,3109,1872,5.32,2010,AMPARO,SP,Sudeste,0.785,0.711,0.871,0.78,77.27,1027.6,0.5,65469,-22.701,-46.764
2022,SP,5,Analândia,3502002,4061,96,100,57,219,99,7,2010,ANALÂNDIA,SP,Sudeste,0.754,0.668,0.861,0.745,76.66,823.33,0.53,4254,-22.126,-47.663
2022,SP,5,Artur Nogueira,3503802,50926,98,33,94.1,2750,1913,4.15,2010,ARTUR NOGUEIRA,SP,Sudeste,0.749,0.681,0.827,0.745,74.63,823.24,0.46,44052,-22.573,-47.173
2022,SP,5,Atibaia,3504107,132317,67.8,100,92.1,7145,2684,7.08,2010,ATIBAIA,SP,Sudeste,0.765,0.67,0.851,0.786,76.03,1063.52,0.53,125437,-23.117,-46.55
2022,SP,5,Bom Jesus dos Perdões,3507100,23370,20,100,85.6,1262,1046,3.11,2010,BOM JESUS DOS PERDÕES,SP,Sudeste,0.713,0.631,0.802,0.716,73.1,688.02,0.41,19689,-23.135,-46.465
2022,SP,5,Bragança Paulista,3507605,167074,89.6,100,99,9022,1019,9.84,2010,BRAGANÇA PAULISTA,SP,Sudeste,0.776,0.704,0.861,0.772,76.67,974.08,0.52,145377,-22.952,-46.542
2022,SP,5,Campinas,3509502,1202203,96.3,99.8,87.5,64919,10315,9.64,2010,CAMPINAS,SP,Sudeste,0.805,0.731,0.86,0.829,76.59,1390.83,0.56,1071443,-22.906,-47.061
2022,SP,5,Campo Limpo Paulista,3509601,86407,60.2,95,97.7,4666,2059,6.16,2010,CAMPO LIMPO PAULISTA,SP,Sudeste,0.769,0.739,0.84,0.733,75.4,767.85,0.43,73597,-23.206,-46.784
2022,SP,5,Capivari,3510401,53839,95,12.5,92.9,2907,2588,2.53,2010,CAPIVARI,SP,Sudeste,0.75,0.669,0.848,0.744,75.89,820.46,0.46,47786,-22.995,-47.508
2022,SP,5,Charqueada,3511706,15912,86.9,98,78.9,859,282,7.64,2010,CHARQUEADA,SP,Sudeste,0.736,0.675,0.82,0.72,74.18,705.01,0.4,15029,-22.51,-47.778
2022,SP,5,Cordeirópolis,3512407,22559,100,70,96.7,1218,394,7.15,2010,CORDEIRÓPOLIS,SP,Sudeste,0.758,0.674,0.858,0.754,76.45,873.87,0.44,20946,-22.482,-47.457
2022,SP,5,Corumbataí,3512704,2200,100,100,80,119,24,9.8,2010,CORUMBATAÍ,SP,Sudeste,0.754,0.7,0.841,0.728,75.43,741.32,0.48,3863,-22.22,-47.626
2022,SP,5,Cosmópolis,3512803,69340,98,0,0,3744,3744,1.47,2010,COSMÓPOLIS,SP,Sudeste,0.769,0.697,0.876,0.746,77.57,829.25,0.42,58446,-22.646,-47.196
2022,SP,5,Elias Fausto,3514908,14405,94.6,100,90.1,778,115,9.62,2010,ELIAS FAUSTO,SP,Sudeste,0.695,0.583,0.822,0.701,74.32,625.66,0.42,15371,-23.043,-47.374
2022,SP,5,Holambra,3519055,11303,100,100,82,610,110,10,2010,HOLAMBRA,SP,Sudeste,0.793,0.698,0.878,0.815,77.66,1274.53,0.54,11254,-22.633,-47.056
2022,SP,5,Hortolândia,3519071,237570,95.2,100,87,12829,2203,9.93,2010,HORTOLÂNDIA,SP,Sudeste,0.756,0.703,0.859,0.716,76.51,686.96,0.41,188088,-22.858,-47.22
2022,SP,5,Indaiatuba,3520509,258069,97.7,100,93.6,13936,1192,9.67,2010,INDAIATUBA,SP,Sudeste,0.788,0.738,0.837,0.791,75.22,1098.31,0.47,201009,-23.09,-47.218
2022,SP,5,Ipeúna,3521101,6734,90.5,100,93,364,58,9.56,2010,IPEÚNA,SP,Sudeste,0.753,0.685,0.845,0.737,75.7,785.15,0.46,5945,-22.436,-47.719
2022,SP,5,Iracemápolis,3521408,24467,100,0,0,1321,1321,1.7,2010,IRACEMÁPOLIS,SP,Sudeste,0.776,0.729,0.863,0.742,76.76,808.74,0.4,19959,-22.581,-47.519
2022,SP,5,Itatiba,3523404,104900,89.7,100,74,5665,1905,7.66,2010,ITATIBA,SP,Sudeste,0.778,0.708,0.844,0.788,75.64,1080.74,0.48,101022,-23.006,-46.839
2022,SP,5,Itupeva,3524006,55863,74.2,100,75.1,3017,1336,6.43,2010,ITUPEVA,SP,Sudeste,0.762,0.699,0.844,0.75,75.63,848.65,0.43,44744,-23.153,-47.058
2022,SP,5,Jaguariúna,3524709,58193,98,92.9,91.8,3142,516,9.86,2010,JAGUARIÚNA,SP,Sudeste,0.784,0.715,0.862,0.782,76.74,1038.61,0.49,44108,-22.706,-46.986
2022,SP,5,Jarinu,3525201,24091,29.7,100,93.8,1301,938,4.26,2010,JARINU,SP,Sudeste,0.733,0.659,0.826,0.723,74.53,718.61,0.45,23797,-23.101,-46.728
2022,SP,5,Joanópolis,3525508,13453,65.2,100,93,726,286,6.92,2010,JOANÓPOLIS,SP,Sudeste,0.699,0.585,0.824,0.707,74.43,650.99,0.43,11658,-22.93,-46.276
2022,SP,5,Jundiaí,3525904,408569,99.5,100,95.6,22063,1076,9.69,2010,JUNDIAÍ,SP,Sudeste,0.822,0.768,0.866,0.834,76.94,1431.55,0.53,368732,-23.186,-46.884
2022,SP,5,Limeira,3526902,301509,100,100,98.7,16281,212,10,2010,LIMEIRA,SP,Sudeste,0.775,0.719,0.852,0.761,76.11,910.85,0.48,274960,-22.565,-47.402
2022,SP,5,Louveira,3527306,49042,86.6,100,86.3,2648,668,7.86,2010,LOUVEIRA,SP,Sudeste,0.777,0.697,0.861,0.783,76.65,1047.17,0.5,37004,-23.086,-46.951
2022,SP,5,Mombuca,3530904,2896,100,100,91,156,14,10,2010,MOMBUCA,SP,Sudeste,0.719,0.607,0.82,0.746,74.18,832.07,0.61,3261,-22.929,-47.566
2022,SP,5,Monte Alegre do Sul,3531209,4680,95,0,0,253,253,1.43,2010,MONTE ALEGRE DO SUL,SP,Sudeste,0.759,0.678,0.858,0.752,76.5,861.61,0.48,7128,-22.682,-46.681
2022,SP,5,Monte Mor,3531803,57962,90.7,100,96.1,3130,402,9.56,2010,MONTE MOR,SP,Sudeste,0.733,0.639,0.863,0.713,76.78,674.23,0.44,48724,-22.947,-47.316
2022,SP,5,Morungaba,3532009,11902,89.9,100,87,643,140,8.43,2010,MORUNGABA,SP,Sudeste,0.715,0.627,0.802,0.726,73.1,733.72,0.41,11730,-22.88,-46.792
2022,SP,5,Nazaré Paulista,3532405,15989,12.8,100,92,863,762,2.96,2010,NAZARÉ PAULISTA,SP,Sudeste,0.678,0.559,0.818,0.681,74.08,554.18,0.45,16163,-23.181,-46.395
2022,SP,5,Nova Odessa,3533403,60710,96.2,100,90.8,3278,415,9.94,2010,NOVA ODESSA,SP,Sudeste,0.791,0.762,0.861,0.755,76.68,878.14,0.41,50978,-22.778,-47.296
2022,SP,5,Paulínia,3536505,114402,94.9,100,81.6,6178,1394,8.45,2010,PAULÍNIA,SP,Sudeste,0.795,0.727,0.864,0.8,76.83,1160.79,0.48,82005,-22.761,-47.154
2022,SP,5,Pedra Bela,3536802,1526,70.6,0,0,82,82,1.06,2010,PEDRA BELA,SP,Sudeste,0.677,0.581,0.796,0.671,72.77,521.38,0.41,5735,-22.793,-46.443
2022,SP,5,Pedreira,3537107,48581,99,92,99,2623,258,9.87,2010,PEDREIRA,SP,Sudeste,0.769,0.701,0.864,0.75,76.82,853.76,0.42,41401,-22.742,-46.901
2022,SP,5,Pinhalzinho,3538204,7666,96,98,86.3,414,78,9.91,2010,PINHALZINHO,SP,Sudeste,0.725,0.666,0.808,0.707,73.49,652.43,0.42,13010,-22.779,-46.591
2022,SP,5,Piracaia,3538600,27617,52.9,98,70,1491,950,5.12,2010,PIRACAIA,SP,Sudeste,0.739,0.625,0.851,0.758,76.03,893.05,0.57,24989,-23.054,-46.358
2022,SP,5,Piracicaba,3538709,401466,100,100,90.9,21679,1973,9.7,2010,PIRACICABA,SP,Sudeste,0.785,0.717,0.848,0.797,75.88,1143.2,0.52,362938,-22.725,-47.649
2022,SP,5,Rafard,3542107,8044,100,9.9,84,434,398,2.19,2010,RAFARD,SP,Sudeste,0.745,0.696,0.823,0.722,74.37,717.07,0.4,8598,-23.012,-47.527
2022,SP,5,Rio Claro,3543907,204448,99.8,100,89.2,11040,1212,9.7,2010,RIO CLARO,SP,Sudeste,0.803,0.766,0.862,0.784,76.72,1049.16,0.5,185130,-22.411,-47.561
2022,SP,5,Rio das Pedras,3544004,35080,99,0,0,1894,1894,1.49,2010,RIO DAS PEDRAS,SP,Sudeste,0.759,0.7,0.842,0.741,75.49,804,0.45,29409,-22.843,-47.606
2022,SP,5,Saltinho,3545159,7092,100,100,97,383,11,9.7,2010,SALTINHO,SP,Sudeste,0.791,0.75,0.857,0.771,76.39,967.88,0.39,7050,-22.847,-47.677
2022,SP,5,Salto,3545209,119930,98,98,41,6476,3926,6,2010,SALTO,SP,Sudeste,0.78,0.751,0.837,0.755,75.19,876.67,0.45,105180,-23.201,-47.287
2022,SP,5,Santa Bárbara d'Oeste,3545803,193745,99,100,94.8,10462,643,9.99,2010,SANTA BÁRBARA D'OESTE,SP,Sudeste,0.781,0.731,0.867,0.752,77.04,863.02,0.41,179604,-22.754,-47.414
2022,SP,5,Santa Gertrudes,3546702,27554,100,100,84.2,1488,235,10,2010,SANTA GERTRUDES,SP,Sudeste,0.737,0.654,0.847,0.723,75.84,718.03,0.38,21561,-22.457,-47.53
2022,SP,5,Santa Maria da Serra,3547007,5552,100,100,87,300,39,10,2010,SANTA MARIA DA SERRA,SP,Sudeste,0.686,0.571,0.82,0.688,74.18,578.55,0.45,5388,-22.567,-48.161
2022,SP,5,Santo Antônio de Posse,3548005,21654,100,100,64.2,1169,419,7.17,2010,SANTO ANTÔNIO DE POSSE,SP,Sudeste,0.702,0.576,0.838,0.718,75.3,695.67,0.44,20591,-22.606,-46.919
2022,SP,5,São Pedro,3550407,30503,90,79,79,1647,722,6.39,2010,SÃO PEDRO,SP,Sudeste,0.755,0.674,0.863,0.741,76.78,803.02,0.46,31550,-22.549,-47.914
2022,SP,5,Sumaré,3552403,286462,95,30,91.6,15469,11431,4.08,2010,SUMARÉ,SP,Sudeste,0.762,0.705,0.845,0.744,75.71,820.03,0.45,240998,-22.822,-47.267
2022,SP,5,Tuiuti,3554953,3534,50,0,0,191,191,0.75,2010,TUIUTI,SP,Sudeste,0.728,0.63,0.871,0.702,77.24,630.49,0.39,5905,-22.816,-46.694
2022,SP,5,Valinhos,3556206,126726,94.3,100,77.9,6843,1840,7.85,2010,VALINHOS,SP,Sudeste,0.819,0.763,0.85,0.848,76.01,1570.91,0.54,106411,-22.971,-46.996
2022,SP,5,Vargem,3556354,5446,46.4,95,99.1,294,166,5.47,2010,VARGEM,SP,Sudeste,0.699,0.591,0.839,0.69,75.36,587.59,0.38,8766,-22.889,-46.414
2022,SP,5,Várzea Paulista,3556503,124269,84.2,100,97.7,6711,1190,9.46,2010,VÁRZEA PAULISTA,SP,Sudeste,0.759,0.705,0.863,0.72,76.8,706.02,0.39,106832,-23.211,-46.828
2022,SP,5,Vinhedo,3556701,78954,91.5,99.8,85.4,4264,939,8.44,2010,VINHEDO,SP,Sudeste,0.817,0.739,0.878,0.84,77.68,1493.32,0.53,63120,-23.03,-46.975
2022,SP,6,Arujá,3503901,88764,71.5,100,75,4793,2223,6.56,2010,ARUJÁ,SP,Sudeste,0.784,0.73,0.866,0.761,76.95,910.67,0.56,74506,-23.396,-46.321
2022,SP,6,Barueri,3505708,279704,83.5,61,86.7,15104,8434,5.54,2010,BARUERI,SP,Sudeste,0.786,0.708,0.866,0.791,76.96,1095.84,0.61,240045,-23.511,-46.876
2022,SP,6,Biritiba-Mirim,3506607,28550,53.1,100,84,1542,854,5.4,2010,BIRITIBA-MIRIM,SP,Sudeste,0.712,0.64,0.795,0.71,72.7,662.23,0.53,28521,-23.573,-46.039
2022,SP,6,Caieiras,3509007,101467,74,15,95,5479,4901,2.53,2010,CAIEIRAS,SP,Sudeste,0.781,0.749,0.861,0.74,76.68,800.15,0.47,86281,-23.364,-46.741
2022,SP,6,Cajamar,3509205,77443,74.4,0,0,4182,4182,1.12,2010,CAJAMAR,SP,Sudeste,0.728,0.668,0.81,0.713,73.59,676.5,0.43,63974,-23.356,-46.877
2022,SP,6,Carapicuíba,3510609,405375,69.8,57,86.7,21890,14339,4.65,2010,CARAPICUÍBA,SP,Sudeste,0.749,0.693,0.842,0.721,75.52,712.78,0.46,368746,-23.523,-46.836
2022,SP,6,Cotia,3513009,257882,54,47,84,13926,10957,3.41,2010,COTIA,SP,Sudeste,0.78,0.707,0.851,0.789,76.05,1085.66,0.57,199329,-23.604,-46.919
2022,SP,6,Diadema,3513801,429550,97.5,59,86.4,23196,11667,6.08,2010,DIADEMA,SP,Sudeste,0.757,0.716,0.844,0.717,75.65,694.55,0.43,385461,-23.686,-46.623
2022,SP,6,Embu das Artes,3515004,279264,72.3,25,86.7,15080,12717,2.68,2010,EMBU,SP,Sudeste,0.735,0.676,0.839,0.7,75.33,622.77,0.45,239739,-23.649,-46.852
2022,SP,6,Embu-Guaçu,3515103,68524,40.5,99,84.3,3700,2450,4.8,2010,EMBU-GUAÇU,SP,Sudeste,0.749,0.708,0.834,0.713,75.01,676.52,0.5,62223,-23.832,-46.811
2022,SP,6,Ferraz de Vasconcelos,3515707,189747,82.7,51,98.1,10246,6007,5.2,2010,FERRAZ DE VASCONCELOS,SP,Sudeste,0.738,0.703,0.828,0.691,74.65,587.83,0.43,167918,-23.541,-46.369
2022,SP,6,Francisco Morato,3516309,179007,58.2,0,0,9666,9666,0.87,2010,FRANCISCO MORATO,SP,Sudeste,0.703,0.647,0.815,0.659,73.91,483.98,0.4,153736,-23.282,-46.745
2022,SP,6,Franco da Rocha,3516408,145966,74,0,0,7882,7882,1.11,2010,FRANCO DA ROCHA,SP,Sudeste,0.731,0.654,0.852,0.702,76.09,632.42,0.44,123372,-23.322,-46.727
2022,SP,6,Guarulhos,3518800,1404694,86.4,15,92,75853,66809,2.81,2010,GUARULHOS,SP,Sudeste,0.763,0.717,0.831,0.746,74.83,829.91,0.51,1212934,-23.463,-46.533
2022,SP,6,Itapecerica da Serra,3522208,178086,52,95,86.7,9617,5498,5.49,2010,ITAPECERICA DA SERRA,SP,Sudeste,0.742,0.687,0.852,0.699,76.09,619.82,0.45,148726,-23.717,-46.849
2022,SP,6,Itapevi,3522505,244131,64.5,59,86.7,13183,8833,4.5,2010,ITAPEVI,SP,Sudeste,0.735,0.677,0.855,0.687,76.28,575.72,0.45,200303,-23.549,-46.934
2022,SP,6,Itaquaquecetuba,3523107,379082,63,18,93.2,20470,18307,2.11,2010,ITAQUAQUECETUBA,SP,Sudeste,0.714,0.648,0.844,0.665,75.66,502.85,0.42,320722,-23.486,-46.348
2022,SP,6,Jandira,3525003,127734,74.1,49,86.7,6898,4726,4.4,2010,JANDIRA,SP,Sudeste,0.76,0.706,0.841,0.738,75.46,792.33,0.48,108176,-23.528,-46.903
2022,SP,6,Mairiporã,3528502,90579,25.8,75,86,4891,4077,3.1,2010,MAIRIPORÃ,SP,Sudeste,0.788,0.723,0.881,0.767,77.86,944.03,0.56,80040,-23.319,-46.587
2022,SP,6,Mauá,3529401,481725,93,93,94.8,26013,4684,9.8,2010,MAUÁ,SP,Sudeste,0.766,0.733,0.852,0.721,76.13,709.25,0.44,414910,-23.668,-46.461
2022,SP,6,Mogi das Cruzes,3530607,419794,60.7,100,98.1,22669,9170,6.78,2010,MOGI DAS CRUZES,SP,Sudeste,0.783,0.74,0.851,0.762,76.07,916.81,0.54,385957,-23.523,-46.188
2022,SP,6,Osasco,3534401,701428,77.8,57,86.7,37877,23314,5.03,2010,OSASCO,SP,Sudeste,0.776,0.718,0.84,0.776,75.42,1003.4,0.53,664836,-23.533,-46.792
2022,SP,6,Pirapora do Bom Jesus,3539103,19453,51,26,96,1050,917,2.29,2010,PIRAPORA DO BOM JESUS,SP,Sudeste,0.727,0.698,0.81,0.679,73.59,546.69,0.47,15703,-23.397,-47.002
2022,SP,6,Poá,3539806,117337,96.8,87,98.1,6336,1101,9.76,2010,POÁ,SP,Sudeste,0.771,0.754,0.856,0.71,76.33,664.31,0.43,105660,-23.528,-46.345
2022,SP,6,Ribeirão Pires,3543303,125238,71.2,70,95.5,6763,3544,5.71,2010,RIBEIRÃO PIRES,SP,Sudeste,0.784,0.76,0.847,0.749,75.81,847.11,0.44,112775,-23.711,-46.413
2022,SP,6,Rio Grande da Serra,3544103,52009,50.2,82,94.8,2808,1713,5.02,2010,RIO GRANDE DA SERRA,SP,Sudeste,0.749,0.745,0.823,0.684,74.36,563.57,0.39,43673,-23.744,-46.398
2022,SP,6,Salesópolis,3545001,11054,77.3,99,79.1,597,236,7.08,2010,SALESÓPOLIS,SP,Sudeste,0.732,0.69,0.829,0.687,74.75,576.55,0.42,15559,-23.532,-45.846
2022,SP,6,Santana de Parnaíba,3547304,145073,46.9,45,85.5,7834,6420,3.05,2010,SANTANA DE PARNAÍBA,SP,Sudeste,0.814,0.725,0.849,0.876,75.92,1858.69,0.67,108233,-23.444,-46.918
2022,SP,6,Santo André,3547809,723889,99.5,45.9,86.4,39090,23675,5.24,2010,SANTO ANDRÉ,SP,Sudeste,0.815,0.769,0.861,0.819,76.66,1304.31,0.53,674891,-23.664,-46.538
2022,SP,6,São Bernardo do Campo,3548708,835657,92.3,31,85.6,45125,34073,3.94,2010,SÃO BERNARDO DO CAMPO,SP,Sudeste,0.805,0.752,0.861,0.807,76.65,1212.65,0.54,761075,-23.694,-46.565
2022,SP,6,São Caetano do Sul,3548807,162763,100,100,86.4,8789,1195,10,2010,SÃO CAETANO DO SUL,SP,Sudeste,0.862,0.811,0.887,0.891,78.2,2043.74,0.54,148195,-23.623,-46.551
2022,SP,6,São Paulo,3550308,12284940,89.5,81,89.9,663387,231038,7.3,2010,SÃO PAULO,SP,Sudeste,0.805,0.725,0.855,0.843,76.3,1516.21,0.62,11166543,-23.548,-46.636
2022,SP,6,Suzano,3552502,292717,94.5,72,98.1,15807,5256,7.34,2010,SUZANO,SP,Sudeste,0.765,0.723,0.873,0.708,77.36,654.61,0.47,261011,-23.543,-46.311
2022,SP,6,Taboão da Serra,3552809,297528,89.5,80,86.7,16067,6093,7.08,2010,TABOÃO DA SERRA,SP,Sudeste,0.769,0.71,0.863,0.742,76.79,812.19,0.47,243971,-23.602,-46.753
2022,SP,7,Bertioga,3506359,65074,66,100,83.6,3514,1585,6.55,2010,BERTIOGA,SP,Sudeste,0.73,0.654,0.817,0.727,74.03,736.03,0.48,47231,-23.854,-46.139
2022,SP,7,Cubatão,3513504,132521,51.3,100,92.4,7156,3764,5.85,2010,CUBATÃO,SP,Sudeste,0.737,0.681,0.821,0.716,74.23,689.21,0.45,117535,-23.895,-46.425
2022,SP,7,Guarujá,3518701,324914,69.4,NA,NA,17545,NA,4.37,2010,GUARUJÁ,SP,Sudeste,0.751,0.679,0.854,0.729,76.23,745,0.5,289668,-23.993,-46.256
2022,SP,7,Itanhaém,3522109,103374,49.3,100,73.2,5582,3568,5.09,2010,ITANHAÉM,SP,Sudeste,0.745,0.701,0.823,0.716,74.36,690.67,0.5,86698,-24.183,-46.789
2022,SP,7,Mongaguá,3531100,58311,82.9,90,56.1,3149,1831,5.81,2010,MONGAGUÁ,SP,Sudeste,0.754,0.699,0.854,0.719,76.24,699.73,0.5,44662,-24.087,-46.629
2022,SP,7,Peruíbe,3537602,68918,81.2,100,62,3722,1848,6.49,2010,PERUÍBE,SP,Sudeste,0.749,0.675,0.854,0.73,76.24,753.85,0.53,59352,-24.32,-46.998
2022,SP,7,Praia Grande,3541000,336454,80,NA,NA,18169,NA,3.7,2010,PRAIA GRANDE,SP,Sudeste,0.754,0.692,0.834,0.744,75.04,820.97,0.49,261387,-24.006,-46.403
2022,SP,7,Santos,3548500,433666,96.6,NA,NA,23418,NA,3.4,2010,SANTOS,SP,Sudeste,0.84,0.807,0.852,0.861,76.13,1693.65,0.55,416524,-23.961,-46.334
2022,SP,7,São Vicente,3551009,370138,79.4,NA,NA,19987,NA,3.84,2010,SÃO VICENTE,SP,Sudeste,0.768,0.716,0.857,0.738,76.39,789.32,0.47,330158,-23.963,-46.392
2022,SP,8,Aramina,3503000,5318,100,100,70,287,86,8.05,2010,ARAMINA,SP,Sudeste,0.74,0.656,0.856,0.723,76.34,721.56,0.43,5139,-20.09,-47.786
2022,SP,8,Batatais,3505906,56102,99,100,86.7,3030,429,9.99,2010,BATATAIS,SP,Sudeste,0.761,0.685,0.84,0.766,75.41,941.79,0.5,56264,-20.891,-47.585
2022,SP,8,Buritizal,3508207,3709,99.7,100,86.1,200,28,10,2010,BURITIZAL,SP,Sudeste,0.735,0.643,0.83,0.743,74.79,817.16,0.46,4049,-20.191,-47.708
2022,SP,8,Cristais Paulista,3513207,6413,97,100,85.7,346,58,9.96,2010,CRISTAIS PAULISTA,SP,Sudeste,0.734,0.682,0.802,0.723,73.11,721.31,0.48,7565,-20.397,-47.42
2022,SP,8,Franca,3516200,352245,100,100,95.3,19021,894,10,2010,FRANCA,SP,Sudeste,0.78,0.753,0.842,0.749,75.5,846.57,0.46,317553,-20.539,-47.401
2022,SP,8,Guaíra,3517406,39799,100,100,20.2,2149,1715,4.51,2010,GUAÍRA,SP,Sudeste,0.753,0.683,0.824,0.759,74.46,901.23,0.53,37339,-20.318,-48.311
2022,SP,8,Guará,3517703,20710,100,100,97,1118,34,10,2010,GUARÁ,SP,Sudeste,0.718,0.63,0.826,0.71,74.55,664.56,0.49,19801,-20.428,-47.824
2022,SP,8,Igarapava,3520103,29040,96.9,100,89,1568,216,9.95,2010,IGARAPAVA,SP,Sudeste,0.768,0.671,0.835,0.809,75.08,1228.09,0.67,27713,-20.038,-47.747
2022,SP,8,Ipuã,3521309,16098,100,100,81.2,869,163,10,2010,IPUÃ,SP,Sudeste,0.749,0.654,0.848,0.759,75.9,900.48,0.59,14093,-20.438,-48.012
2022,SP,8,Itirapuã,3523701,5490,98.8,100,90.7,296,31,9.98,2010,ITIRAPUÃ,SP,Sudeste,0.707,0.636,0.826,0.673,74.55,526.62,0.44,5889,-20.641,-47.219
2022,SP,8,Ituverava,3524105,39785,100,100,83.7,2148,350,10,2010,ITUVERAVA,SP,Sudeste,0.765,0.694,0.841,0.768,75.47,950.39,0.52,38583,-20.339,-47.781
2022,SP,8,Jeriquara,3525409,2592,100,100,78.1,140,31,8.58,2010,JERIQUARA,SP,Sudeste,0.703,0.628,0.814,0.68,73.86,549.1,0.42,3160,-20.311,-47.589
2022,SP,8,Miguelópolis,3529708,21176,87.5,100,88,1144,263,8.32,2010,MIGUELÓPOLIS,SP,Sudeste,0.741,0.661,0.863,0.712,76.78,670.82,0.46,20370,-20.179,-48.032
2022,SP,8,Nuporanga,3533601,6825,100,100,90,369,37,10,2010,NUPORANGA,SP,Sudeste,0.746,0.656,0.866,0.73,76.94,751.92,0.45,6783,-20.73,-47.749
2022,SP,8,Patrocínio Paulista,3536307,12067,100,100,83.6,652,107,10,2010,PATROCÍNIO PAULISTA,SP,Sudeste,0.73,0.678,0.826,0.696,74.55,607.51,0.42,12949,-20.639,-47.282
2022,SP,8,Pedregulho,3537008,12451,100,100,80.7,672,130,10,2010,PEDREGULHO,SP,Sudeste,0.715,0.623,0.82,0.716,74.2,690.08,0.49,15627,-20.257,-47.477
2022,SP,8,Restinga,3542701,6103,100,100,71.1,330,95,8.12,2010,RESTINGA,SP,Sudeste,0.705,0.639,0.826,0.664,74.55,499.24,0.38,6526,-20.603,-47.483
2022,SP,8,Ribeirão Corrente,3543105,3805,87.1,100,85.1,205,53,8.13,2010,RIBEIRÃO CORRENTE,SP,Sudeste,0.711,0.642,0.814,0.688,73.86,579.04,0.42,4269,-20.457,-47.59
2022,SP,8,Rifaina,3543600,3196,97.8,100,88,173,24,9.97,2010,RIFAINA,SP,Sudeste,0.74,0.69,0.824,0.713,74.42,677.62,0.45,3410,-20.081,-47.421
2022,SP,8,Santo Antônio da Alegria,3547908,5202,98.3,100,77.8,281,66,7.94,2010,SANTO ANTÔNIO DA ALEGRIA,SP,Sudeste,0.702,0.604,0.83,0.69,74.8,585.63,0.42,6207,-21.087,-47.151
2022,SP,8,São Joaquim da Barra,3549409,51791,100,100,87,2797,364,10,2010,SÃO JOAQUIM DA BARRA,SP,Sudeste,0.762,0.706,0.847,0.74,75.8,799.93,0.42,46359,-20.581,-47.855
2022,SP,8,São José da Bela Vista,3549508,8006,95.9,100,80,432,101,8.42,2010,SÃO JOSÉ DA BELA VISTA,SP,Sudeste,0.693,0.58,0.844,0.679,75.61,548.31,0.46,8376,-20.593,-47.64
2022,SP,9,Aguaí,3500303,33361,98.1,50,89.4,1801,1012,5.57,2010,AGUAÍ,SP,Sudeste,0.715,0.606,0.858,0.703,76.49,636.07,0.47,32089,-22.059,-46.979
2022,SP,9,Águas da Prata,3500402,7376,98.8,100,92,398,36,9.98,2010,ÁGUAS DA PRATA,SP,Sudeste,0.781,0.716,0.886,0.75,78.13,853.39,0.52,7510,-21.937,-46.717
2022,SP,9,Águas de Lindóia,3500501,18738,99,56.4,87.4,1012,518,6.01,2010,ÁGUAS DE LINDÓIA,SP,Sudeste,0.745,0.675,0.846,0.725,75.76,730.13,0.43,17120,-22.476,-46.633
2022,SP,9,Américo Brasiliense,3501707,41231,100,0,0,2226,2226,1.5,2010,AMÉRICO BRASILIENSE,SP,Sudeste,0.751,0.701,0.852,0.709,76.12,659.67,0.39,34370,-21.724,-48.102
2022,SP,9,Araras,3503307,129376,100,100,19.9,6986,5596,4.49,2010,ARARAS,SP,Sudeste,0.781,0.728,0.859,0.763,76.55,921.76,0.47,117824,-22.357,-47.384
2022,SP,9,Barrinha,3505609,33165,100,0,0,1791,1791,1.5,2010,BARRINHA,SP,Sudeste,0.725,0.646,0.829,0.711,74.74,668.32,0.4,28473,-21.194,-48.164
2022,SP,9,Conchal,3512209,26921,97,97,80,1454,359,8.31,2010,CONCHAL,SP,Sudeste,0.708,0.614,0.827,0.699,74.64,617.76,0.43,25103,-22.33,-47.173
2022,SP,9,Descalvado,3513702,30426,99.1,80,91.3,1643,454,7.4,2010,DESCALVADO,SP,Sudeste,0.76,0.687,0.865,0.74,76.92,798.74,0.45,30559,-21.904,-47.619
2022,SP,9,Dumont,3514601,9813,100,100,60,530,212,7.4,2010,DUMONT,SP,Sudeste,0.744,0.674,0.849,0.72,75.91,705.3,0.39,8143,-21.236,-47.973
2022,SP,9,Engenheiro Coelho,3515152,15880,100,100,80,858,172,10,2010,ENGENHEIRO COELHO,SP,Sudeste,0.732,0.668,0.815,0.72,73.87,707.37,0.45,15647,-22.488,-47.215
2022,SP,9,Espírito Santo do Pinhal,3515186,39645,93.7,100,90.6,2141,323,9.91,2010,ESPÍRITO SANTO DO PINHAL,SP,Sudeste,0.787,0.712,0.872,0.784,77.31,1048.6,0.57,41568,-22.191,-46.741
2022,SP,9,Estiva Gerbi,3557303,9178,100,0,0,496,496,1.5,2010,ESTIVA GERBI,SP,Sudeste,0.74,0.695,0.815,0.716,73.87,686.89,0.41,10001,-22.271,-46.945
2022,SP,9,Guariba,3518602,40007,99.8,100,82,2160,392,10,2010,GUARIBA,SP,Sudeste,0.719,0.645,0.811,0.712,73.63,671.34,0.43,35336,-21.36,-48.228
2022,SP,9,Guatapará,3518859,5699,100,30,95,308,220,4,2010,GUATAPARÁ,SP,Sudeste,0.743,0.688,0.822,0.724,74.34,723.83,0.53,6867,-21.497,-48.038
2022,SP,9,Itapira,3522604,70205,100,100,80,3791,758,10,2010,ITAPIRA,SP,Sudeste,0.762,0.692,0.852,0.75,76.1,849.81,0.45,67506,-22.436,-46.822
2022,SP,9,Jaboticabal,3524303,75704,100,99,49.1,4088,2101,6.35,2010,JABOTICABAL,SP,Sudeste,0.778,0.71,0.851,0.778,76.08,1015.51,0.52,70825,-21.255,-48.322
2022,SP,9,Leme,3526704,103100,100,100,89,5567,612,10,2010,LEME,SP,Sudeste,0.744,0.665,0.851,0.729,76.05,746.15,0.48,91247,-22.186,-47.39
2022,SP,9,Lindóia,3527009,8201,70,0,0,443,443,1.25,2010,LINDÓIA,SP,Sudeste,0.742,0.654,0.864,0.722,76.85,714.18,0.4,6696,-22.523,-46.65
2022,SP,9,Luís Antônio,3527603,15095,100,100,74,815,212,8.01,2010,LUÍS ANTÔNIO,SP,Sudeste,0.731,0.671,0.822,0.709,74.34,661.22,0.42,11249,-21.555,-47.704
2022,SP,9,Mogi Guaçu,3530706,146340,99.2,60.5,79.6,7902,4125,5.71,2010,MOGI GUAÇU,SP,Sudeste,0.774,0.736,0.852,0.74,76.1,802.19,0.44,136821,-22.372,-46.942
2022,SP,9,Mogi Mirim,3530805,88050,96,88.2,96,4755,891,9.76,2010,MOJI MIRIM,SP,Sudeste,0.784,0.715,0.879,0.767,77.74,945.62,0.49,85784,-22.432,-46.958
2022,SP,9,Motuca,3532058,3500,100,100,80,189,38,10,2010,MOTUCA,SP,Sudeste,0.741,0.691,0.859,0.685,76.51,567.17,0.45,4009,-21.508,-48.151
2022,SP,9,Pirassununga,3539301,70858,100,100,73.5,3826,1014,8.28,2010,PIRASSUNUNGA,SP,Sudeste,0.801,0.736,0.884,0.789,78.03,1086.22,0.51,69798,-21.996,-47.426
2022,SP,9,Pitangueiras,3539509,38874,100,9.7,70.8,2099,1956,2.08,2010,PITANGUEIRAS,SP,Sudeste,0.723,0.651,0.83,0.699,74.77,620.66,0.41,35185,-21.009,-48.222
2022,SP,9,Pontal,3540200,50751,98.9,100,81.9,2741,521,9.98,2010,PONTAL,SP,Sudeste,0.725,0.633,0.838,0.718,75.27,699.28,0.44,40083,-21.023,-48.037
2022,SP,9,Porto Ferreira,3540705,55828,96.4,79,88.3,3015,987,7.51,2010,PORTO FERREIRA,SP,Sudeste,0.751,0.696,0.827,0.736,74.63,779,0.45,51283,-21.854,-47.479
2022,SP,9,Pradópolis,3540903,20605,100,100,70,1113,334,8.05,2010,PRADÓPOLIS,SP,Sudeste,0.733,0.65,0.822,0.738,74.34,788.76,0.45,17165,-21.359,-48.066
2022,SP,9,Rincão,3543709,8793,100,0,0,475,475,1.5,2010,RINCÃO,SP,Sudeste,0.734,0.682,0.826,0.701,74.53,626.27,0.44,10271,-21.587,-48.071
2022,SP,9,Santa Cruz da Conceição,3546207,3102,97,100,80,168,38,8.5,2010,SANTA CRUZ DA CONCEIÇÃO,SP,Sudeste,0.79,0.679,0.876,0.83,77.56,1400.46,0.67,3990,-22.14,-47.452
2022,SP,9,Santa Cruz das Palmeiras,3546306,34009,100,0,0,1836,1836,1.5,2010,SANTA CRUZ DAS PALMEIRAS,SP,Sudeste,0.728,0.635,0.815,0.746,73.87,829.66,0.51,29824,-21.827,-47.249
2022,SP,9,Santa Lúcia,3546900,8357,100,100,73.9,451,118,8,2010,SANTA LÚCIA,SP,Sudeste,0.737,0.703,0.818,0.696,74.1,609.37,0.39,8233,-21.685,-48.084
2022,SP,9,"Santa Rita do Passa
Quatro",3547502,24742,96.3,100,83.4,1336,264,9.94,2010,SANTA RITA DO PASSA QUATRO,SP,Sudeste,0.775,0.686,0.887,0.764,78.22,930.59,0.48,26047,-21.71,-47.478
2022,SP,9,Santo Antônio do Jardim,3548104,3522,92.4,100,82.1,190,46,8.32,2010,SANTO ANTÔNIO DO JARDIM,SP,Sudeste,0.714,0.62,0.835,0.703,75.12,635.11,0.41,5898,-22.116,-46.68
2022,SP,9,São João da Boa Vista,3549102,88632,100,100,91.7,4786,397,10,2010,SÃO JOÃO DA BOA VISTA,SP,Sudeste,0.797,0.749,0.871,0.776,77.23,998.31,0.51,83234,-21.969,-46.798
2022,SP,9,Serra Negra,3551603,25740,78.3,100,85,1390,465,7.5,2010,SERRA NEGRA,SP,Sudeste,0.767,0.676,0.873,0.764,77.36,927.39,0.48,26297,-22.612,-46.701
2022,SP,9,Sertãozinho,3551702,126913,100,90,77,6853,2104,7.55,2010,SERTÃOZINHO,SP,Sudeste,0.761,0.672,0.855,0.768,76.31,953.23,0.46,109540,-21.138,-47.99
2022,SP,9,Socorro,3552106,28346,77.5,99,92,1531,450,7.74,2010,SOCORRO,SP,Sudeste,0.729,0.634,0.828,0.737,74.66,785.71,0.44,36501,-22.591,-46.529
2022,SP,9,Taquaral,3553658,2698,100,100,64,146,52,7.36,2010,TAQUARAL,SP,Sudeste,0.759,0.716,0.823,0.742,74.4,811.38,0.51,2714,-21.072,-48.41
2022,SP,10,Alambari,3500758,4685,56.2,100,77.5,253,143,5.17,2010,ALAMBARI,SP,Sudeste,0.712,0.658,0.805,0.682,73.27,556.36,0.44,4863,-23.551,-47.899
2022,SP,10,Alumínio,3501152,15854,70.9,70.9,79.2,856,515,4.91,2010,ALUMÍNIO,SP,Sudeste,0.766,0.732,0.841,0.729,75.47,747.27,0.42,16701,-23.535,-47.262
2022,SP,10,Anhembi,3502309,5221,86.9,100,69.7,282,111,7.24,2010,ANHEMBI,SP,Sudeste,0.721,0.637,0.863,0.681,76.78,554.16,0.42,5548,-22.789,-48.127
2022,SP,10,Araçariguama,3502754,23343,42.1,42.1,87.3,1261,1065,2.47,2010,ARAÇARIGUAMA,SP,Sudeste,0.704,0.597,0.814,0.717,73.86,691.69,0.46,16906,-23.439,-47.061
2022,SP,10,Araçoiaba da Serra,3502903,24325,40,100,88.9,1314,846,4.41,2010,ARAÇOIABA DA SERRA,SP,Sudeste,0.776,0.723,0.86,0.751,76.61,853.87,0.52,27154,-23.505,-47.614
2022,SP,10,Bofete,3506904,7719,89,100,88,417,90,8.43,2010,BOFETE,SP,Sudeste,0.705,0.609,0.821,0.7,74.23,622.11,0.46,9528,-23.102,-48.258
2022,SP,10,Boituva,3507001,59554,88.3,100,86.8,3216,751,8,2010,BOITUVA,SP,Sudeste,0.78,0.728,0.861,0.757,76.67,889.51,0.49,48122,-23.283,-47.672
2022,SP,10,Botucatu,3507506,144250,100,99,87.4,7790,1063,9.98,2010,BOTUCATU,SP,Sudeste,0.8,0.746,0.869,0.79,77.13,1089.1,0.54,126804,-22.886,-48.445
2022,SP,10,Cabreúva,3508405,43335,66.2,100,90.8,2340,933,6.6,2010,CABREÚVA,SP,Sudeste,0.738,0.678,0.828,0.717,74.67,694.03,0.42,41417,-23.308,-47.133
2022,SP,10,Capela do Alto,3510302,17607,75.6,100,50,951,591,5.59,2010,CAPELA DO ALTO,SP,Sudeste,0.699,0.617,0.823,0.673,74.36,526.28,0.4,17212,-23.471,-47.735
2022,SP,10,Cerquilho,3511508,48011,98,100,93.4,2593,220,9.97,2010,CERQUILHO,SP,Sudeste,0.782,0.739,0.854,0.758,76.21,894.52,0.42,39409,-23.165,-47.744
2022,SP,10,Cesário Lange,3511607,12555,100,100,97.4,678,18,10,2010,CESÁRIO LANGE,SP,Sudeste,0.706,0.611,0.804,0.715,73.23,684.95,0.43,14470,-23.227,-47.953
2022,SP,10,Conchas,3512308,14696,82.1,100,98,794,155,9.73,2010,CONCHAS,SP,Sudeste,0.736,0.658,0.837,0.725,75.19,730.42,0.49,16171,-23.015,-48.011
2022,SP,10,Ibiúna,3519709,28030,49.6,45.8,86,1514,1218,3.2,2010,IBIÚNA,SP,Sudeste,0.71,0.614,0.832,0.7,74.91,624.55,0.48,70480,-23.656,-47.223
2022,SP,10,Iperó,3521002,23924,90.2,100,91.6,1292,224,9.85,2010,IPERÓ,SP,Sudeste,0.719,0.672,0.814,0.68,73.86,551.75,0.4,26367,-23.35,-47.689
2022,SP,10,Itu,3523909,165798,100,80,87.2,8953,2707,7.73,2010,ITU,SP,Sudeste,0.773,0.692,0.854,0.782,76.23,1038.14,0.52,153278,-23.264,-47.299
2022,SP,10,Jumirim,3525854,2011,90,100,67.9,109,42,7.02,2010,JUMIRIM,SP,Sudeste,0.741,0.655,0.863,0.721,76.75,710.27,0.39,2798,-23.087,-47.784
2022,SP,10,Laranjal Paulista,3526407,26011,96.4,100,67.3,1405,493,7.67,2010,LARANJAL PAULISTA,SP,Sudeste,0.729,0.639,0.829,0.732,74.73,760.58,0.41,25243,-23.05,-47.837
2022,SP,10,Mairinque,3528403,38302,77,0,0,2068,2068,1.36,2010,MAIRINQUE,SP,Sudeste,0.743,0.684,0.831,0.721,74.85,710.18,0.44,42933,-23.546,-47.183
2022,SP,10,Pereiras,3537503,5927,100,100,83,320,54,10,2010,PEREIRAS,SP,Sudeste,0.736,0.637,0.873,0.717,77.35,692.35,0.44,7444,-23.076,-47.976
2022,SP,10,Piedade,3537800,25395,73.8,100,68,1371,683,6.37,2010,PIEDADE,SP,Sudeste,0.716,0.624,0.848,0.694,75.87,601.32,0.47,51223,-23.712,-47.428
2022,SP,10,Porangaba,3540507,4927,79.7,100,81,266,94,7.1,2010,PORANGABA,SP,Sudeste,0.703,0.578,0.864,0.696,76.81,606.65,0.48,8209,-23.176,-48.125
2022,SP,10,Porto Feliz,3540606,45135,99.9,100,88.4,2437,284,10,2010,PORTO FELIZ,SP,Sudeste,0.758,0.706,0.836,0.737,75.14,785.76,0.45,48375,-23.215,-47.524
2022,SP,10,Quadra,3541653,998,69.2,100,89.4,54,21,7.06,2010,QUADRA,SP,Sudeste,0.678,0.541,0.822,0.7,74.3,625.35,0.49,3205,-23.299,-48.055
2022,SP,10,Salto de Pirapora,3545308,36287,98.9,100,83,1959,351,9.78,2010,SALTO DE PIRAPORA,SP,Sudeste,0.729,0.665,0.834,0.699,75.04,618.93,0.44,39223,-23.649,-47.573
2022,SP,10,São Roque,3550605,84417,48.5,99,90.5,4559,2578,5.24,2010,SÃO ROQUE,SP,Sudeste,0.768,0.687,0.863,0.765,76.79,932.62,0.5,78332,-23.529,-47.135
2022,SP,10,Sarapuí,3551108,7725,58,100,83.4,417,215,5.51,2010,SARAPUÍ,SP,Sudeste,0.707,0.621,0.814,0.699,73.86,619.86,0.52,8995,-23.641,-47.825
2022,SP,10,Sorocaba,3552205,688252,99,97.5,88.9,37166,5274,9.95,2010,SOROCABA,SP,Sudeste,0.798,0.762,0.843,0.792,75.59,1107.19,0.52,581541,-23.502,-47.458
2022,SP,10,Tatuí,3554003,118270,97.2,100,82.7,6387,1253,9.96,2010,TATUÍ,SP,Sudeste,0.752,0.688,0.842,0.734,75.52,771.05,0.47,106912,-23.356,-47.857
2022,SP,10,Tietê,3554508,39045,86.5,29,82.5,2108,1672,3.59,2010,TIETÊ,SP,Sudeste,0.778,0.698,0.884,0.764,78.04,927.25,0.48,36630,-23.102,-47.715
2022,SP,10,Torre de Pedra,3554656,1585,89.2,89.2,74,86,35,7.01,2010,TORRE DE PEDRA,SP,Sudeste,0.714,0.647,0.829,0.679,74.73,548.39,0.39,2233,-23.244,-48.195
2022,SP,10,Vargem Grande Paulista,3556453,54315,35.4,32,80,2933,2667,1.8,2010,VARGEM GRANDE PAULISTA,SP,Sudeste,0.77,0.683,0.884,0.755,78.02,876.61,0.5,42765,-23.603,-47.026
2022,SP,10,Votorantim,3557006,119721,99,100,89.5,6465,737,9.99,2010,VOTORANTIM,SP,Sudeste,0.767,0.747,0.838,0.72,75.3,703.99,0.4,108578,-23.547,-47.438
2022,SP,11,Apiaí,3502705,17415,61.9,100,88,940,428,6.47,2010,APIAÍ,SP,Sudeste,0.71,0.647,0.835,0.662,75.07,492.43,0.55,24625,-24.509,-48.843
2022,SP,11,Barra do Chapéu,3505351,1706,87.6,100,83,92,25,8.04,2010,BARRA DO CHAPÉU,SP,Sudeste,0.66,0.599,0.779,0.617,71.72,370.97,0.54,5165,-24.473,-49.025
2022,SP,11,Barra do Turvo,3505401,3123,73.9,100,81,169,68,7,2010,BARRA DO TURVO,SP,Sudeste,0.641,0.532,0.792,0.625,72.53,390.88,0.5,7481,-24.756,-48.505
2022,SP,11,Cajati,3509254,20770,86.7,100,85,1122,295,8.09,2010,CAJATI,SP,Sudeste,0.694,0.611,0.832,0.658,74.89,481.48,0.47,28032,-24.736,-48.123
2022,SP,11,Cananéia,3509908,10706,83.3,100,85.7,578,165,7.89,2010,CANANÉIA,SP,Sudeste,0.72,0.649,0.851,0.677,76.07,540.54,0.49,11900,-25.015,-47.927
2022,SP,11,Eldorado,3514809,7673,97.9,100,82.3,414,80,9.97,2010,ELDORADO,SP,Sudeste,0.691,0.615,0.847,0.633,75.82,411,0.49,14553,-24.52,-48.108
2022,SP,11,Iguape,3520301,26635,60.3,100,83.3,1438,716,6.16,2010,IGUAPE,SP,Sudeste,0.726,0.653,0.847,0.691,75.84,588.36,0.55,28565,-24.708,-47.555
2022,SP,11,Ilha Comprida,3520426,11552,44.5,100,80.6,624,400,5,2010,ILHA COMPRIDA,SP,Sudeste,0.725,0.666,0.823,0.696,74.36,608.83,0.46,8875,-24.741,-47.54
2022,SP,11,Iporanga,3521200,2335,67.9,100,82.4,126,56,6.66,2010,IPORANGA,SP,Sudeste,0.703,0.668,0.816,0.637,73.96,421.14,0.53,4215,-24.586,-48.593
2022,SP,11,Itaóca,3522158,1817,61.5,100,86,98,46,6.36,2010,ITAÓCA,SP,Sudeste,0.68,0.637,0.787,0.627,72.2,395.32,0.54,3205,-24.64,-48.843
2022,SP,11,Itapirapuã Paulista,3522653,2094,82.1,100,85,113,34,7.77,2010,ITAPIRAPUÃ PAULISTA,SP,Sudeste,0.661,0.594,0.816,0.595,73.96,323.42,0.53,3840,-24.574,-49.168
2022,SP,11,Itariri,3523305,11337,38.3,100,85.6,612,411,4.7,2010,ITARIRI,SP,Sudeste,0.677,0.577,0.837,0.642,75.21,434.58,0.5,15247,-24.289,-47.174
2022,SP,11,Jacupiranga,3524600,9752,100,92,93.6,527,73,9.88,2010,JACUPIRANGA,SP,Sudeste,0.717,0.644,0.832,0.687,74.89,574.52,0.53,17070,-24.693,-48.002
2022,SP,11,Juquiá,3526100,11749,83,95,84,634,214,7.49,2010,JUQUIÁ,SP,Sudeste,0.7,0.637,0.823,0.654,74.36,467.35,0.49,18876,-24.321,-47.635
2022,SP,11,Juquitiba,3526209,24645,16.6,100,56.1,1331,1207,2.86,2010,JUQUITIBA,SP,Sudeste,0.709,0.662,0.791,0.68,72.48,550.32,0.49,28464,-23.932,-47.068
2022,SP,11,Miracatu,3529906,10030,86.6,100,83.3,542,151,7.99,2010,MIRACATU,SP,Sudeste,0.697,0.655,0.803,0.645,73.18,442.77,0.5,20336,-24.281,-47.46
2022,SP,11,Pariquera-Açu,3536208,13588,93.9,100,85.9,734,142,9.91,2010,PARIQUERA-AÇU,SP,Sudeste,0.736,0.678,0.862,0.682,76.7,557.69,0.47,18311,-24.715,-47.881
2022,SP,11,Pedro de Toledo,3537206,7931,58.3,100,82.4,428,223,5.99,2010,PEDRO DE TOLEDO,SP,Sudeste,0.696,0.634,0.812,0.654,73.71,467.93,0.47,10128,-24.275,-47.233
2022,SP,11,Registro,3542602,50124,99.6,100,80.3,2707,542,9.99,2010,REGISTRO,SP,Sudeste,0.754,0.702,0.851,0.718,76.08,699.41,0.52,54058,-24.488,-47.844
2022,SP,11,Ribeira,3542800,1222,62.7,100,86,66,30,6.44,2010,RIBEIRA,SP,Sudeste,0.698,0.673,0.797,0.635,72.83,416.85,0.47,3319,-24.657,-49.009
2022,SP,11,São Lourenço da Serra,3549953,14680,31.6,100,77.5,793,599,4.06,2010,SÃO LOURENÇO DA SERRA,SP,Sudeste,0.728,0.666,0.823,0.704,74.36,640.64,0.47,13808,-23.853,-46.943
2022,SP,11,Sete Barras,3551801,7039,75.8,100,80.1,380,149,7.09,2010,SETE BARRAS,SP,Sudeste,0.673,0.562,0.832,0.651,74.89,459.28,0.5,12869,-24.388,-47.926
2022,SP,11,Tapiraí,3553500,5523,79.5,100,81.4,298,105,7.4,2010,TAPIRAÍ,SP,Sudeste,0.681,0.578,0.846,0.647,75.74,449.75,0.44,7941,-23.964,-47.507
2022,SP,12,Altair,3500907,3336,89.3,100,88.6,180,38,8.48,2010,ALTAIR,SP,Sudeste,0.687,0.581,0.8,0.698,73,616.38,0.42,3795,-20.524,-49.059
2022,SP,12,Barretos,3505500,119782,100,100,83.2,6468,1087,10,2010,BARRETOS,SP,Sudeste,0.789,0.738,0.875,0.762,77.5,917,0.48,111603,-20.557,-48.568
2022,SP,12,Bebedouro,3506102,73959,99.1,43.8,81.1,3994,2588,4.64,2010,BEBEDOURO,SP,Sudeste,0.78,0.735,0.853,0.756,76.16,881.64,0.51,74728,-20.949,-48.479
2022,SP,12,Colina,3512001,17372,100,100,71.7,938,265,8.16,2010,COLINA,SP,Sudeste,0.757,0.712,0.845,0.72,75.71,706.69,0.46,17279,-20.713,-48.541
2022,SP,12,Colômbia,3512100,4498,100,100,93.8,243,15,10,2010,COLÔMBIA,SP,Sudeste,0.71,0.647,0.802,0.689,73.13,582.53,0.4,5982,-20.176,-48.689
2022,SP,12,Guaraci,3517901,10185,100,100,44,550,308,6.36,2010,GUARACI,SP,Sudeste,0.737,0.682,0.84,0.698,75.37,615.78,0.42,9946,-20.499,-48.945
2022,SP,12,Icém,3519808,7177,99.5,100,82.2,388,71,9.99,2010,ICÉM,SP,Sudeste,0.72,0.646,0.806,0.716,73.34,690.78,0.45,7448,-20.342,-49.195
2022,SP,12,Jaborandi,3524204,6513,90.4,100,89,352,69,9.86,2010,JABORANDI,SP,Sudeste,0.711,0.627,0.845,0.679,75.71,548.22,0.39,6530,-20.688,-48.413
2022,SP,12,Morro Agudo,3531902,32203,100,97.9,88,1739,241,9.97,2010,MORRO AGUDO,SP,Sudeste,0.712,0.604,0.836,0.716,75.15,687.37,0.45,29050,-20.731,-48.058
2022,SP,12,Orlândia,3534302,43531,100,0,0,2351,2351,1.7,2010,ORLÂNDIA,SP,Sudeste,0.78,0.703,0.882,0.765,77.89,934.54,0.5,39610,-20.72,-47.887
2022,SP,12,Terra Roxa,3554409,9057,93.1,100,83,489,111,8.42,2010,TERRA ROXA,SP,Sudeste,0.749,0.684,0.838,0.732,75.3,759.32,0.45,8475,-20.789,-48.33
2022,SP,12,Viradouro,3556800,18573,100,100,65.8,1003,343,7.48,2010,VIRADOURO,SP,Sudeste,0.739,0.683,0.823,0.717,74.4,692.01,0.4,17257,-20.873,-48.297
2022,SP,13,Agudos,3500709,35915,100,100,95.4,1939,89,10,2010,AGUDOS,SP,Sudeste,0.745,0.694,0.845,0.705,75.67,642.59,0.41,34113,-22.469,-48.988
2022,SP,13,Araraquara,3503208,233704,99.7,100,66.8,12620,4215,7.83,2010,ARARAQUARA,SP,Sudeste,0.815,0.782,0.877,0.788,77.64,1080.66,0.5,206616,-21.794,-48.176
2022,SP,13,Arealva,3503406,6825,77,100,77.8,369,148,7.05,2010,AREALVA,SP,Sudeste,0.744,0.683,0.84,0.718,75.37,697.3,0.45,7814,-22.029,-48.911
2022,SP,13,Areiópolis,3503604,9940,99.2,100,77,537,127,8.45,2010,AREIÓPOLIS,SP,Sudeste,0.695,0.594,0.823,0.686,74.37,570.09,0.36,10547,-22.668,-48.665
2022,SP,13,Bariri,3505203,34008,98.8,100,87.5,1836,249,9.98,2010,BARIRI,SP,Sudeste,0.75,0.662,0.867,0.736,77.04,781.34,0.42,31422,-22.074,-48.74
2022,SP,13,Barra Bonita,3505302,35368,99,20,71,1910,1641,3.2,2010,BARRA BONITA,SP,Sudeste,0.788,0.739,0.869,0.762,77.12,915.28,0.45,35157,-22.495,-48.558
2022,SP,13,Bauru,3506003,375321,98.3,5,85.8,20267,19413,2.02,2010,BAURU,SP,Sudeste,0.801,0.752,0.854,0.8,76.26,1163.86,0.55,339356,-22.315,-49.061
2022,SP,13,Boa Esperança do Sul,3506706,13493,100,100,71,729,211,8.12,2010,BOA ESPERANÇA DO SUL,SP,Sudeste,0.681,0.562,0.811,0.692,73.63,593.36,0.44,13557,-21.993,-48.391
2022,SP,13,Bocaina,3506805,11584,100,100,91.2,626,55,9.7,2010,BOCAINA,SP,Sudeste,0.742,0.656,0.84,0.741,75.41,805.99,0.42,10714,-22.136,-48.518
2022,SP,13,Boracéia,3507308,4405,100,100,82.1,238,43,10,2010,BORACÉIA,SP,Sudeste,0.754,0.685,0.866,0.723,76.93,719.42,0.38,4265,-22.193,-48.779
2022,SP,13,Borebi,3507456,2366,100,100,85.6,128,18,9.8,2010,BOREBI,SP,Sudeste,0.705,0.615,0.846,0.674,75.73,529.08,0.39,2271,-22.569,-48.971
2022,SP,13,Brotas,3507902,21428,100,100,75.4,1157,285,8.1,2010,BROTAS,SP,Sudeste,0.74,0.688,0.815,0.724,73.9,722.76,0.41,21507,-22.284,-48.127
2022,SP,13,Dois Córregos,3514106,26233,98.5,100,82.3,1417,268,9.48,2010,DOIS CÓRREGOS,SP,Sudeste,0.725,0.616,0.853,0.725,76.17,727.28,0.46,24650,-22.366,-48.38
2022,SP,13,Dourado,3514304,8119,100,100,94,438,26,10,2010,DOURADO,SP,Sudeste,0.738,0.689,0.811,0.718,73.66,697.37,0.37,8575,-22.1,-48.318
2022,SP,13,Gavião Peixoto,3516853,3916,100,97,86.9,211,33,9.46,2010,GAVIÃO PEIXOTO,SP,Sudeste,0.719,0.676,0.802,0.687,73.14,575.08,0.35,4419,-21.839,-48.495
2022,SP,13,Iacanga,3519105,10459,93,100,75,565,171,7.73,2010,IACANGA,SP,Sudeste,0.745,0.675,0.851,0.721,76.03,712.15,0.4,9808,-21.89,-49.025
2022,SP,13,Ibaté,3519303,34401,100,100,70.2,1858,554,7.76,2010,IBATÉ,SP,Sudeste,0.703,0.627,0.814,0.681,73.81,552.79,0.37,30672,-21.955,-47.997
2022,SP,13,Ibitinga,3519600,58733,95,100,88,3172,520,9.93,2010,IBITINGA,SP,Sudeste,0.747,0.667,0.846,0.738,75.76,791.99,0.43,52942,-21.758,-48.829
2022,SP,13,Igaraçu do Tietê,3520004,24679,100,80,53.3,1333,764,5.97,2010,IGARAÇU DO TIETÊ,SP,Sudeste,0.727,0.664,0.838,0.691,75.3,590.77,0.36,23255,-22.509,-48.558
2022,SP,13,Itaju,3522000,2864,100,100,10,155,139,3.65,2010,ITAJU,SP,Sudeste,0.705,0.613,0.823,0.696,74.39,609.08,0.37,3246,-21.981,-48.805
2022,SP,13,Itapuí,3522901,13659,95,100,68.6,738,257,7.17,2010,ITAPUÍ,SP,Sudeste,0.725,0.633,0.841,0.716,75.47,687.46,0.41,12138,-22.233,-48.719
2022,SP,13,Itirapina,3523602,16784,87.5,100,86.3,906,222,7.92,2010,ITIRAPINA,SP,Sudeste,0.724,0.636,0.813,0.734,73.77,772.14,0.48,12711,-22.253,-47.823
2022,SP,13,Jaú,3525300,148665,100,100,93.9,8028,490,10,2010,JAÚ,SP,Sudeste,0.778,0.693,0.886,0.768,78.13,951.17,0.45,130243,-22.296,-48.558
2022,SP,13,Lençóis Paulista,3526803,67974,100,100,64.5,3671,1303,7.49,2010,LENÇÓIS PAULISTA,SP,Sudeste,0.764,0.717,0.837,0.743,75.19,816.48,0.43,61212,-22.599,-48.8
2022,SP,13,Macatuba,3528007,16750,100,100,75,905,226,7.88,2010,MACATUBA,SP,Sudeste,0.77,0.697,0.859,0.763,76.52,920.95,0.55,16217,-22.502,-48.711
2022,SP,13,Mineiros do Tietê,3529807,12441,97,100,67.6,672,231,7.53,2010,MINEIROS DO TIETÊ,SP,Sudeste,0.73,0.658,0.823,0.719,74.39,700.24,0.39,11982,-22.409,-48.451
2022,SP,13,Nova Europa,3532900,10683,100,100,86.3,577,79,10,2010,NOVA EUROPA,SP,Sudeste,0.765,0.718,0.869,0.718,77.11,697.32,0.39,9295,-21.778,-48.561
2022,SP,13,Pederneiras,3536703,44196,98.8,100,74.3,2387,635,7.95,2010,PEDERNEIRAS,SP,Sudeste,0.739,0.673,0.812,0.738,73.74,788.42,0.49,41138,-22.352,-48.775
2022,SP,13,Ribeirão Bonito,3542909,12367,96,0,0,668,668,1.44,2010,RIBEIRÃO BONITO,SP,Sudeste,0.712,0.625,0.811,0.712,73.66,673.96,0.46,12087,-22.067,-48.176
2022,SP,13,São Carlos,3548906,246626,100,90.7,79.8,13318,3679,8.06,2010,SÃO CARLOS,SP,Sudeste,0.805,0.766,0.863,0.788,76.78,1079.45,0.49,220666,-22.018,-47.891
2022,SP,13,São Manuel,3550100,40287,100,100,73.9,2175,568,8,2010,SÃO MANUEL,SP,Sudeste,0.744,0.695,0.805,0.735,73.29,773.82,0.45,38157,-22.731,-48.571
2022,SP,13,Tabatinga,3552700,14377,99.1,100,82.3,776,143,9.99,2010,TABATINGA,SP,Sudeste,0.704,0.609,0.818,0.7,74.1,625.39,0.4,14339,-21.717,-48.688
2022,SP,13,Torrinha,3554706,8594,98.5,100,76.4,464,115,8.37,2010,TORRINHA,SP,Sudeste,0.744,0.658,0.852,0.734,76.11,770.15,0.45,9280,-22.426,-48.169
2022,SP,13,Trabiju,3554755,1609,100,100,96.3,87,3,10,2010,TRABIJU,SP,Sudeste,0.722,0.697,0.811,0.666,73.63,505.36,0.4,1542,-22.042,-48.336
2022,SP,14,Angatuba,3502200,18477,86.6,100,77.6,998,327,7.17,2010,ANGATUBA,SP,Sudeste,0.719,0.648,0.827,0.693,74.6,597.99,0.45,22096,-23.49,-48.413
2022,SP,14,Arandu,3503109,4802,83.3,100,81,259,84,7.44,2010,ARANDU,SP,Sudeste,0.685,0.592,0.806,0.675,73.36,535.27,0.39,6074,-23.134,-49.054
2022,SP,14,Barão de Antonina,3505005,2164,99.1,100,81.7,117,22,9.79,2010,BARÃO DE ANTONINA,SP,Sudeste,0.711,0.649,0.82,0.676,74.22,536.63,0.47,3085,-23.627,-49.561
2022,SP,14,Bernardino de Campos,3506300,10010,100,100,85.2,541,80,9.7,2010,BERNARDINO DE CAMPOS,SP,Sudeste,0.734,0.662,0.838,0.713,75.26,676.6,0.45,10650,-23.013,-49.474
2022,SP,14,Bom Sucesso de Itararé,3507159,2731,80.6,100,38,147,102,5.2,2010,BOM SUCESSO DE ITARARÉ,SP,Sudeste,0.66,0.613,0.775,0.605,71.49,344.32,0.44,3539,-24.318,-49.144
2022,SP,14,Buri,3508009,16193,97.2,100,72.3,874,260,7.53,2010,BURI,SP,Sudeste,0.667,0.578,0.799,0.642,72.94,435.15,0.5,18456,-23.798,-48.593
2022,SP,14,Campina do Monte Alegre,3509452,5151,83.9,100,92.6,278,62,8.11,2010,CAMPINA DO MONTE ALEGRE,SP,Sudeste,0.717,0.634,0.846,0.687,75.77,575.66,0.53,5525,-23.592,-48.477
2022,SP,14,Capão Bonito,3510203,38578,94.9,100,84.6,2083,411,9.42,2010,CAPÃO BONITO,SP,Sudeste,0.721,0.671,0.826,0.675,74.55,534.75,0.5,45905,-24.006,-48.349
2022,SP,14,Coronel Macedo,3512605,3548,97.9,100,89.1,192,24,9.77,2010,CORONEL MACEDO,SP,Sudeste,0.69,0.619,0.811,0.653,73.64,465.29,0.45,4965,-23.631,-49.314
2022,SP,14,Fartura,3515400,12863,100,100,65.4,695,240,7.75,2010,FARTURA,SP,Sudeste,0.732,0.648,0.867,0.699,77.02,618.77,0.43,15165,-23.388,-49.51
2022,SP,14,Guapiara,3517604,6790,78.9,91,99,367,106,7.37,2010,GUAPIARA,SP,Sudeste,0.675,0.602,0.806,0.634,73.37,412.51,0.55,17367,-24.185,-48.533
2022,SP,14,Guareí,3518503,11116,85.8,100,90.1,600,136,8.31,2010,GUAREÍ,SP,Sudeste,0.687,0.583,0.805,0.692,73.27,594.42,0.44,11720,-23.373,-48.184
2022,SP,14,Ipaussu,3520905,13972,99,99,80,754,163,8.58,2010,IPAUSSU,SP,Sudeste,0.727,0.65,0.828,0.713,74.66,677.42,0.48,13634,-23.057,-49.626
2022,SP,14,Itaberá,3521705,11831,88.1,100,95,639,104,9.32,2010,ITABERÁ,SP,Sudeste,0.693,0.636,0.803,0.652,73.18,462.03,0.5,17596,-23.862,-49.137
2022,SP,14,Itaí,3521804,21698,83.5,100,67.3,1172,513,6.7,2010,ITAÍ,SP,Sudeste,0.713,0.63,0.83,0.692,74.77,594.77,0.45,22489,-23.418,-49.091
2022,SP,14,Itapetininga,3522307,151681,95.9,100,84.2,8191,1577,9.64,2010,ITAPETININGA,SP,Sudeste,0.763,0.705,0.864,0.728,76.86,741.64,0.49,140549,-23.592,-48.053
2022,SP,14,Itapeva,3522406,80267,87.8,100,91,4334,871,8.21,2010,ITAPEVA,SP,Sudeste,0.732,0.697,0.803,0.702,73.18,630.48,0.53,87282,-23.982,-48.876
2022,SP,14,Itaporanga,3522802,11524,89.5,100,90,622,121,9.64,2010,ITAPORANGA,SP,Sudeste,0.719,0.653,0.835,0.681,75.11,552.76,0.53,14346,-23.708,-49.49
2022,SP,14,Itararé,3523206,46897,91.2,100,87,2532,523,8.23,2010,ITARARÉ,SP,Sudeste,0.703,0.649,0.803,0.668,73.18,510.2,0.48,47640,-24.115,-49.341
2022,SP,14,Manduri,3528601,8626,90,100,86,466,105,8.18,2010,MANDURI,SP,Sudeste,0.739,0.675,0.818,0.73,74.05,750.34,0.48,8957,-23.003,-49.322
2022,SP,14,Nova Campina,3532827,6741,64.1,100,44,364,261,4.79,2010,NOVA CAMPINA,SP,Sudeste,0.651,0.577,0.799,0.598,72.94,330.03,0.47,8404,-24.121,-48.904
2022,SP,14,Paranapanema,3535804,16737,70.3,100,82.5,904,380,6.32,2010,PARANAPANEMA,SP,Sudeste,0.717,0.631,0.839,0.697,75.31,613.31,0.47,17673,-23.389,-48.723
2022,SP,14,Pilar do Sul,3537909,23267,73.2,100,88,1256,447,7.29,2010,PILAR DO SUL,SP,Sudeste,0.69,0.594,0.82,0.674,74.18,531.06,0.43,26218,-23.813,-47.716
2022,SP,14,Piraju,3538808,26912,100,100,88,1453,174,9.8,2010,PIRAJU,SP,Sudeste,0.758,0.699,0.843,0.74,75.59,801.23,0.48,28347,-23.194,-49.384
2022,SP,14,Ribeirão Branco,3543006,8131,81,90,90,439,151,7.03,2010,RIBEIRÃO BRANCO,SP,Sudeste,0.639,0.553,0.797,0.592,72.83,318.44,0.46,17928,-24.221,-48.766
2022,SP,14,Ribeirão Grande,3543253,2427,100,100,99,131,1,9.7,2010,RIBEIRÃO GRANDE,SP,Sudeste,0.705,0.676,0.807,0.643,73.43,436.21,0.41,7380,-24.099,-48.365
2022,SP,14,Riversul,3543501,3910,97.5,100,83,211,40,9.76,2010,RIVERSUL,SP,Sudeste,0.664,0.577,0.799,0.634,72.94,412.42,0.5,6115,-23.828,-49.429
2022,SP,14,São Miguel Arcanjo,3550209,22610,70.1,100,68.1,1221,638,6.15,2010,SÃO MIGUEL ARCANJO,SP,Sudeste,0.71,0.633,0.799,0.708,72.95,657.07,0.57,31124,-23.878,-47.997
2022,SP,14,Sarutaiá,3551207,2958,96,100,97,160,11,9.94,2010,SARUTAIÁ,SP,Sudeste,0.688,0.603,0.794,0.679,72.65,548.61,0.44,3555,-23.273,-49.48
2022,SP,14,Taguaí,3553005,10327,100,100,85.5,558,81,9.5,2010,TAGUAÍ,SP,Sudeste,0.709,0.631,0.818,0.69,74.05,587.51,0.37,10781,-23.452,-49.409
2022,SP,14,Taquarituba,3553807,20458,100,100,83.2,1105,186,9.8,2010,TAQUARITUBA,SP,Sudeste,0.701,0.606,0.811,0.7,73.65,624.86,0.48,22153,-23.533,-49.244
2022,SP,14,Taquarivaí,3553856,3257,75.8,100,88,176,59,7.18,2010,TAQUARIVAÍ,SP,Sudeste,0.679,0.626,0.811,0.617,73.64,373.06,0.43,5111,-23.924,-48.693
2022,SP,14,Tejupá,3554201,2888,92,0,0,156,156,1.38,2010,TEJUPÁ,SP,Sudeste,0.668,0.563,0.794,0.668,72.65,510.13,0.48,4732,-23.343,-49.376
2022,SP,14,Timburi,3554607,1925,94.5,100,69,104,36,7.66,2010,TIMBURI,SP,Sudeste,0.71,0.629,0.826,0.688,74.58,580.24,0.46,2621,-23.205,-49.607
2022,SP,15,Álvares Florence,3501202,2457,100,100,65.2,133,46,7.74,2010,ÁLVARES FLORENCE,SP,Sudeste,0.728,0.683,0.806,0.701,73.35,627.14,0.41,3891,-20.321,-49.911
2022,SP,15,Américo de Campos,3501806,5029,99,98,93,272,27,9.96,2010,AMÉRICO DE CAMPOS,SP,Sudeste,0.745,0.708,0.817,0.715,74.04,686.56,0.43,5697,-20.299,-49.732
2022,SP,15,Ariranha,3503703,9329,100,100,81.4,504,94,10,2010,ARIRANHA,SP,Sudeste,0.733,0.663,0.813,0.73,73.75,751.35,0.4,8532,-21.188,-48.787
2022,SP,15,Aspásia,3503950,1261,100,100,81,68,13,10,2010,ASPÁSIA,SP,Sudeste,0.735,0.657,0.864,0.699,76.83,619.43,0.44,1806,-20.159,-50.733
2022,SP,15,Bálsamo,3504800,8435,99.9,100,91.1,455,41,10,2010,BÁLSAMO,SP,Sudeste,0.756,0.695,0.835,0.746,75.08,832.51,0.44,8145,-20.735,-49.584
2022,SP,15,Cajobi,3509304,9957,100,100,82.3,538,95,9.5,2010,CAJOBI,SP,Sudeste,0.734,0.674,0.822,0.714,74.32,679.75,0.4,9760,-20.88,-48.809
2022,SP,15,Cândido Rodrigues,3510104,2264,100,100,65,122,43,7.43,2010,CÂNDIDO RODRIGUES,SP,Sudeste,0.789,0.762,0.863,0.747,76.79,837.17,0.48,2668,-21.325,-48.631
2022,SP,15,Cardoso,3510708,11244,100,100,97.6,607,15,10,2010,CARDOSO,SP,Sudeste,0.722,0.636,0.853,0.695,76.18,605.99,0.42,11762,-20.082,-49.914
2022,SP,15,Catanduva,3511102,122125,99.1,100,86.3,6595,955,9.99,2010,CATANDUVA,SP,Sudeste,0.785,0.74,0.853,0.767,76.2,945.05,0.46,112201,-21.138,-48.973
2022,SP,15,Catiguá,3511201,7286,100,100,89.6,393,41,10,2010,CATIGUÁ,SP,Sudeste,0.751,0.676,0.852,0.734,76.12,771.78,0.43,7080,-21.049,-49.058
2022,SP,15,Cedral,3511300,7478,100,100,85.2,404,60,9.7,2010,CEDRAL,SP,Sudeste,0.766,0.689,0.872,0.749,77.3,845.41,0.42,7869,-20.903,-49.268
2022,SP,15,Cosmorama,3512902,4996,99.5,100,68.9,270,85,7.65,2010,COSMORAMA,SP,Sudeste,0.722,0.63,0.849,0.705,75.96,643.1,0.4,7176,-20.478,-49.778
2022,SP,15,Dolcinópolis,3514205,1960,100,100,83.8,106,17,10,2010,DOLCINÓPOLIS,SP,Sudeste,0.742,0.709,0.825,0.699,74.5,620.98,0.36,2094,-20.123,-50.513
2022,SP,15,Embaúba,3514957,2080,100,100,64,112,40,7.36,2010,EMBAÚBA,SP,Sudeste,0.73,0.641,0.84,0.723,75.42,717.97,0.36,2423,-20.983,-48.836
2022,SP,15,Estrela d'Oeste,3515202,7007,100,100,83.4,378,63,10,2010,ESTRELA D'OESTE,SP,Sudeste,0.76,0.705,0.873,0.712,77.4,670.65,0.39,8152,-20.288,-50.401
2022,SP,15,Fernando Prestes,3515608,4928,100,100,73,266,72,7.95,2010,FERNANDO PRESTES,SP,Sudeste,0.758,0.68,0.859,0.746,76.55,832.72,0.41,5506,-21.264,-48.685
2022,SP,15,Fernandópolis,3515509,67545,100,100,86.5,3647,492,10,2010,FERNANDÓPOLIS,SP,Sudeste,0.797,0.758,0.872,0.767,77.31,944,0.49,64444,-20.284,-50.246
2022,SP,15,Guapiaçu,3517505,19536,80,100,73.8,1055,432,7.04,2010,GUAPIAÇU,SP,Sudeste,0.725,0.605,0.866,0.728,76.93,741.42,0.41,17794,-20.795,-49.22
2022,SP,15,Guarani d'Oeste,3518008,1758,100,100,57.3,95,41,7.22,2010,GUARANI D'OESTE,SP,Sudeste,0.732,0.714,0.806,0.682,73.34,557.58,0.4,1966,-20.075,-50.339
2022,SP,15,Indiaporã,3520707,3356,93.4,100,87.9,181,32,9.9,2010,INDIAPORÃ,SP,Sudeste,0.751,0.71,0.835,0.714,75.11,680.85,0.47,3848,-19.98,-50.29
2022,SP,15,Ipiguá,3521150,3358,100,0,0,181,181,1.8,2010,IPIGUÁ,SP,Sudeste,0.73,0.666,0.839,0.696,75.33,608.53,0.36,4455,-20.657,-49.387
2022,SP,15,Macedônia,3528205,2794,98.7,100,81,151,30,8.68,2010,MACEDÔNIA,SP,Sudeste,0.74,0.675,0.852,0.705,76.09,644.23,0.42,3636,-20.146,-50.194
2022,SP,15,Meridiano,3529609,2645,100,100,86,143,20,10,2010,MERIDIANO,SP,Sudeste,0.731,0.667,0.817,0.717,74.04,694.38,0.4,3831,-20.359,-50.173
2022,SP,15,Mesópolis,3529658,1481,99.1,100,90.3,80,8,9.99,2010,MESÓPOLIS,SP,Sudeste,0.724,0.666,0.847,0.674,75.84,530.46,0.37,1886,-19.966,-50.638
2022,SP,15,Mira Estrela,3530003,2084,98.6,100,87,113,16,9.98,2010,MIRA ESTRELA,SP,Sudeste,0.743,0.731,0.806,0.697,73.34,613.14,0.43,2820,-19.979,-50.137
2022,SP,15,Mirassol,3530300,59233,100,100,89.9,3199,323,10,2010,MIRASSOL,SP,Sudeste,0.762,0.698,0.846,0.748,75.76,841.27,0.43,53576,-20.819,-49.521
2022,SP,15,Mirassolândia,3530409,4038,80,100,82.1,218,75,7.47,2010,MIRASSOLÂNDIA,SP,Sudeste,0.738,0.69,0.829,0.704,74.76,639.58,0.39,4288,-20.617,-49.464
2022,SP,15,Monte Alto,3531308,48742,100,100,93.6,2632,168,10,2010,MONTE ALTO,SP,Sudeste,0.768,0.707,0.859,0.746,76.56,832.6,0.42,46499,-21.261,-48.496
2022,SP,15,Monte Azul Paulista,3531506,17710,99.8,30,91,956,696,4.22,2010,MONTE AZUL PAULISTA,SP,Sudeste,0.753,0.69,0.843,0.733,75.56,765.11,0.46,18862,-20.907,-48.641
2022,SP,15,Nova Granada,3533007,20269,97.7,100,80.1,1095,238,8.26,2010,NOVA GRANADA,SP,Sudeste,0.739,0.68,0.818,0.727,74.05,737.29,0.44,19097,-20.534,-49.314
2022,SP,15,Novais,3533254,5515,100,96,53.1,298,146,6.55,2010,NOVAIS,SP,Sudeste,0.719,0.634,0.822,0.712,74.32,671.15,0.45,4587,-20.992,-48.919
2022,SP,15,Olímpia,3533908,52394,100,100,80.8,2829,543,10,2010,OLÍMPIA,SP,Sudeste,0.773,0.724,0.867,0.737,77.02,783.14,0.43,49865,-20.737,-48.915
2022,SP,15,Onda Verde,3534005,3496,100,100,80.2,189,37,9.7,2010,ONDA VERDE,SP,Sudeste,0.738,0.671,0.863,0.693,76.78,597.67,0.34,3853,-20.614,-49.299
2022,SP,15,Orindiúva,3534203,6735,92.1,100,83,364,86,8.35,2010,ORINDIÚVA,SP,Sudeste,0.767,0.762,0.824,0.719,74.42,699.63,0.38,5643,-20.182,-49.351
2022,SP,15,Ouroeste,3534757,9617,100,100,86.6,519,70,10,2010,OUROESTE,SP,Sudeste,0.77,0.736,0.866,0.717,76.93,694.33,0.43,8332,-20.001,-50.372
2022,SP,15,Palestina,3535002,11045,98.5,100,59.1,596,249,7.26,2010,PALESTINA,SP,Sudeste,0.732,0.645,0.848,0.717,75.88,692.43,0.4,11023,-20.39,-49.433
2022,SP,15,Palmares Paulista,3535101,13297,80.7,100,81.6,718,245,7.29,2010,PALMARES PAULISTA,SP,Sudeste,0.722,0.645,0.837,0.698,75.21,615.01,0.34,10922,-21.083,-48.801
2022,SP,15,Paraíso,3535705,5749,100,100,56.4,310,135,7.17,2010,PARAÍSO,SP,Sudeste,0.749,0.668,0.837,0.751,75.19,855.28,0.45,5891,-21.016,-48.774
2022,SP,15,Paranapuã,3535903,3658,100,100,84,198,32,10,2010,PARANAPUÃ,SP,Sudeste,0.732,0.655,0.842,0.712,75.52,670.18,0.45,3799,-20.103,-50.586
2022,SP,15,Parisi,3536257,1760,80,100,96,95,22,8.19,2010,PARISI,SP,Sudeste,0.721,0.619,0.842,0.72,75.5,705.62,0.4,2032,-20.304,-50.015
2022,SP,15,Paulo de Faria,3536604,8096,100,100,93,437,31,10,2010,PAULO DE FARIA,SP,Sudeste,0.725,0.662,0.8,0.721,73,708.63,0.51,8527,-20.031,-49.383
2022,SP,15,Pedranópolis,3536901,1535,100,100,80,83,17,10,2010,PEDRANÓPOLIS,SP,Sudeste,0.742,0.684,0.854,0.698,76.26,615.77,0.38,2558,-20.248,-50.11
2022,SP,15,Pindorama,3538105,16449,100,100,88,888,107,10,2010,PINDORAMA,SP,Sudeste,0.737,0.654,0.842,0.726,75.51,732.68,0.39,14894,-21.186,-48.907
2022,SP,15,Pirangi,3539004,10336,100,100,67.7,558,180,7.7,2010,PIRANGI,SP,Sudeste,0.756,0.701,0.837,0.735,75.19,774.99,0.38,10558,-21.091,-48.658
2022,SP,15,Pontes Gestal,3540309,2172,100,100,83,117,20,10,2010,PONTES GESTAL,SP,Sudeste,0.732,0.69,0.805,0.705,73.3,642.68,0.38,2515,-20.167,-49.703
2022,SP,15,Populina,3540408,3342,100,100,88,180,22,10,2010,POPULINA,SP,Sudeste,0.714,0.647,0.804,0.699,73.25,621.48,0.41,4208,-19.954,-50.538
2022,SP,15,Riolândia,3544202,10171,100,100,83.1,549,93,10,2010,RIOLÂNDIA,SP,Sudeste,0.703,0.629,0.817,0.677,74.04,539.22,0.4,9308,-19.99,-49.681
2022,SP,15,Santa Adélia,3545605,14796,99,100,70.2,799,244,8.01,2010,SANTA ADÉLIA,SP,Sudeste,0.76,0.702,0.835,0.75,75.08,853.14,0.43,14184,-21.243,-48.804
2022,SP,15,Santa Albertina,3545704,5158,100,100,84,279,45,10,2010,SANTA ALBERTINA,SP,Sudeste,0.728,0.665,0.809,0.716,73.51,686.89,0.42,5655,-20.032,-50.728
2022,SP,15,Santa Clara d'Oeste,3546108,1591,100,100,87,86,11,10,2010,SANTA CLARA D'OESTE,SP,Sudeste,0.733,0.687,0.804,0.712,73.25,672.98,0.45,2079,-20.089,-50.954
2022,SP,15,Santa Rita d'Oeste,3547403,1726,71,100,50.5,93,60,5.39,2010,SANTA RITA D'OESTE,SP,Sudeste,0.761,0.74,0.839,0.711,75.31,666.14,0.39,2543,-20.143,-50.833
2022,SP,15,São José do Rio Preto,3549805,440709,100,100,94,23798,1428,10,2010,SÃO JOSÉ DO RIO PRETO,SP,Sudeste,0.797,0.748,0.846,0.801,75.74,1169.16,0.5,405249,-20.82,-49.379
2022,SP,15,Severínia,3551900,16984,100,78,65.1,917,451,6.47,2010,SEVERÍNIA,SP,Sudeste,0.715,0.638,0.807,0.709,73.42,657.45,0.41,15444,-20.809,-48.803
2022,SP,15,Tabapuã,3552601,11628,100,100,77,628,144,8.21,2010,TABAPUÃ,SP,Sudeste,0.735,0.666,0.82,0.726,74.2,731.31,0.4,11280,-20.964,-49.032
2022,SP,15,Taiaçu,3553104,5748,100,100,70,310,93,7.75,2010,TAIAÇU,SP,Sudeste,0.71,0.628,0.814,0.701,73.84,626.12,0.41,5891,-21.144,-48.513
2022,SP,15,Taiúva,3553203,5072,100,100,77.5,274,62,8.24,2010,TAIÚVA,SP,Sudeste,0.76,0.718,0.835,0.732,75.08,761.47,0.42,5427,-21.124,-48.452
2022,SP,15,Tanabi,3553401,23701,98.2,94,88,1280,240,9.88,2010,TANABI,SP,Sudeste,0.748,0.687,0.829,0.735,74.73,775.79,0.42,23991,-20.626,-49.649
2022,SP,15,Turmalina,3555307,1186,100,100,90.5,64,6,10,2010,TURMALINA,SP,Sudeste,0.736,0.675,0.817,0.724,74.04,725.06,0.39,1954,-20.052,-50.476
2022,SP,15,Uchoa,3555604,9470,100,100,96.6,511,17,10,2010,UCHOA,SP,Sudeste,0.721,0.644,0.823,0.708,74.36,655.13,0.4,9445,-20.953,-49.175
2022,SP,15,Urânia,3555802,7679,100,100,78,415,91,8.57,2010,URÂNIA,SP,Sudeste,0.746,0.709,0.804,0.727,73.25,739.08,0.46,8803,-20.246,-50.643
2022,SP,15,Valentim Gentil,3556107,12534,100,100,96,677,27,10,2010,VALENTIM GENTIL,SP,Sudeste,0.735,0.692,0.81,0.708,73.62,654.97,0.36,10975,-20.422,-50.088
2022,SP,15,Vista Alegre do Alto,3556909,8452,100,100,45.8,456,247,6.18,2010,VISTA ALEGRE DO ALTO,SP,Sudeste,0.744,0.676,0.84,0.726,75.41,732.14,0.35,6810,-21.171,-48.629
2022,SP,15,Vitória Brasil,3556958,1530,100,100,87,83,11,10,2010,VITÓRIA BRASIL,SP,Sudeste,0.725,0.685,0.811,0.686,73.63,572.68,0.35,1737,-20.197,-50.484
2022,SP,15,Votuporanga,3557105,93413,99,99.7,75.7,5044,1275,8.35,2010,VOTUPORANGA,SP,Sudeste,0.79,0.744,0.857,0.772,76.44,977.39,0.49,84502,-20.423,-49.973
2022,SP,16,Adolfo,3500204,3189,100,100,82.5,172,30,10,2010,ADOLFO,SP,Sudeste,0.73,0.648,0.844,0.71,75.62,661.65,0.38,3557,-21.235,-49.644
2022,SP,16,Avaí,3504305,3671,91.4,100,79.9,198,53,8.12,2010,AVAÍ,SP,Sudeste,0.714,0.65,0.83,0.674,74.77,531.2,0.47,4845,-22.147,-49.333
2022,SP,16,Bady Bassitt,3504602,16849,100,100,88.1,910,108,10,2010,BADY BASSITT,SP,Sudeste,0.746,0.701,0.805,0.737,73.31,783.57,0.36,14593,-20.918,-49.445
2022,SP,16,Balbinos,3504701,1971,100,100,78.4,106,23,8.6,2010,BALBINOS,SP,Sudeste,0.669,0.537,0.809,0.69,73.55,586.02,0.38,1365,-21.9,-49.357
2022,SP,16,Borborema,3507407,14671,99,100,83.4,792,138,9.99,2010,BORBOREMA,SP,Sudeste,0.73,0.658,0.831,0.71,74.83,664.64,0.42,14408,-21.62,-49.074
2022,SP,16,Cafelândia,3508801,15564,100,4,0,840,840,1.56,2010,CAFELÂNDIA,SP,Sudeste,0.742,0.661,0.867,0.714,77.01,680.71,0.46,16509,-21.803,-49.61
2022,SP,16,Dobrada,3514007,8885,100,100,83.2,480,81,9.8,2010,DOBRADA,SP,Sudeste,0.718,0.655,0.818,0.691,74.1,589.47,0.38,7939,-21.517,-48.394
2022,SP,16,Elisiário,3514924,3428,100,100,64.5,185,66,7.39,2010,ELISIÁRIO,SP,Sudeste,0.747,0.712,0.825,0.711,74.51,666.93,0.33,3120,-21.166,-49.112
2022,SP,16,Guaiçara,3517208,11280,100,100,82,609,110,10,2010,GUAIÇARA,SP,Sudeste,0.739,0.679,0.853,0.697,76.16,610.2,0.38,10619,-21.622,-49.799
2022,SP,16,Guarantã,3518107,5702,100,100,81,308,59,10,2010,GUARANTÃ,SP,Sudeste,0.713,0.623,0.832,0.698,74.93,615.97,0.48,6387,-21.895,-49.59
2022,SP,16,Ibirá,3519402,11652,98.9,100,81.5,629,122,9.98,2010,IBIRÁ,SP,Sudeste,0.74,0.65,0.841,0.741,75.48,803.36,0.48,10857,-21.08,-49.241
2022,SP,16,Irapuã,3521507,7226,100,90.3,89,390,77,9.85,2010,IRAPUÃ,SP,Sudeste,0.713,0.624,0.844,0.688,75.63,579.58,0.36,7224,-21.279,-49.409
2022,SP,16,Itajobi,3521903,12788,83.4,96.1,85.7,691,216,7.35,2010,ITAJOBI,SP,Sudeste,0.73,0.644,0.832,0.727,74.94,739.45,0.38,14486,-21.318,-49.054
2022,SP,16,Itápolis,3522703,39486,100,70,80,2132,938,6.49,2010,ITÁPOLIS,SP,Sudeste,0.744,0.667,0.836,0.738,75.14,787.75,0.45,39812,-21.596,-48.813
2022,SP,16,Jaci,3524501,6305,99,100,79.6,340,72,8.61,2010,JACI,SP,Sudeste,0.723,0.659,0.818,0.7,74.05,624.57,0.35,5475,-20.882,-49.57
2022,SP,16,Lins,3527108,78055,100,100,80.6,4215,818,10,2010,LINS,SP,Sudeste,0.786,0.733,0.869,0.762,77.13,919.53,0.45,70583,-21.679,-49.743
2022,SP,16,Marapoama,3528858,2587,87.3,100,24,140,110,4.67,2010,MARAPOAMA,SP,Sudeste,0.752,0.679,0.852,0.736,76.14,781.03,0.4,2620,-21.259,-49.129
2022,SP,16,Matão,3529302,82526,100,100,94.2,4456,258,10,2010,MATÃO,SP,Sudeste,0.773,0.713,0.847,0.766,75.84,940.44,0.52,76679,-21.603,-48.366
2022,SP,16,Mendonça,3529500,4609,100,100,67.3,249,81,7.57,2010,MENDONÇA,SP,Sudeste,0.744,0.663,0.863,0.72,76.78,707.36,0.36,4623,-21.167,-49.581
2022,SP,16,Nova Aliança,3532801,5933,100,100,59.1,320,131,7.04,2010,NOVA ALIANÇA,SP,Sudeste,0.738,0.684,0.826,0.71,74.56,662.48,0.38,5858,-21.016,-49.496
2022,SP,16,Novo Horizonte,3533502,38860,100,100,87.1,2098,271,9.8,2010,NOVO HORIZONTE,SP,Sudeste,0.753,0.665,0.865,0.741,76.92,806.75,0.45,36479,-21.468,-49.221
2022,SP,16,Pirajuí,3538907,21137,98,0,0,1141,1141,1.47,2010,PIRAJUÍ,SP,Sudeste,0.749,0.672,0.853,0.734,76.18,770.38,0.47,19560,-21.999,-49.457
2022,SP,16,Piratininga,3539400,11911,100,100,88.5,643,74,9.7,2010,PIRATININGA,SP,Sudeste,0.779,0.723,0.859,0.762,76.53,917.62,0.48,11672,-22.413,-49.135
2022,SP,16,Pongaí,3540101,2844,100,100,85.6,154,22,10,2010,PONGAÍ,SP,Sudeste,0.755,0.701,0.844,0.727,75.65,736.33,0.45,3447,-21.736,-49.367
2022,SP,16,Potirendaba,3540804,15878,90,95,85.2,857,233,8.01,2010,POTIRENDABA,SP,Sudeste,0.747,0.661,0.857,0.737,76.41,785.96,0.4,15418,-21.043,-49.377
2022,SP,16,Presidente Alves,3541109,3384,100,100,92.3,183,14,9.8,2010,PRESIDENTE ALVES,SP,Sudeste,0.735,0.689,0.811,0.711,73.65,665.72,0.47,4106,-22.1,-49.438
2022,SP,16,Reginópolis,3542503,5985,100,80,94,323,80,7.79,2010,REGINÓPOLIS,SP,Sudeste,0.728,0.66,0.817,0.715,74.04,685.32,0.41,5267,-21.888,-49.225
2022,SP,16,Sabino,3544608,4944,98.6,100,71.1,267,80,8.04,2010,SABINO,SP,Sudeste,0.728,0.671,0.813,0.708,73.76,655.4,0.41,5210,-21.46,-49.578
2022,SP,16,Sales,3544806,5834,67,100,83,315,140,6.62,2010,SALES,SP,Sudeste,0.751,0.697,0.859,0.708,76.56,654.79,0.42,5418,-21.341,-49.485
2022,SP,16,Santa Ernestina,3546504,5153,100,100,96,278,11,10,2010,SANTA ERNESTINA,SP,Sudeste,0.738,0.699,0.802,0.716,73.14,688.24,0.42,5551,-21.463,-48.391
2022,SP,16,Taquaritinga,3553708,54541,100,100,91.9,2945,239,9.7,2010,TAQUARITINGA,SP,Sudeste,0.748,0.696,0.827,0.727,74.61,739.25,0.46,53786,-21.406,-48.505
2022,SP,16,Uru,3555901,987,83.3,100,85,53,16,7.85,2010,URU,SP,Sudeste,0.712,0.639,0.832,0.678,74.93,544.1,0.39,1228,-21.784,-49.281
2022,SP,16,Urupês,3556008,12427,100,100,80.1,671,134,10,2010,URUPÊS,SP,Sudeste,0.745,0.683,0.817,0.741,74.03,805.66,0.43,12668,-21.202,-49.29
2022,SP,17,Águas de Santa Bárbara,3500550,4670,73.2,100,95,252,77,7.42,2010,ÁGUAS DE SANTA BÁRBARA,SP,Sudeste,0.757,0.695,0.84,0.744,75.41,818.15,0.48,5570,-22.881,-49.239
2022,SP,17,Alvinlândia,3501509,2918,99,100,77.3,158,37,8.46,2010,ALVINLÂNDIA,SP,Sudeste,0.722,0.659,0.791,0.721,72.48,710.49,0.53,2993,-22.444,-49.763
2022,SP,17,Assis,3504008,101151,100,100,83.6,5462,896,10,2010,ASSIS,SP,Sudeste,0.805,0.781,0.865,0.771,76.91,967.39,0.5,93014,-22.662,-50.412
2022,SP,17,Avaré,3504503,87871,99.8,100,81.8,4745,871,9.8,2010,AVARÉ,SP,Sudeste,0.767,0.695,0.866,0.751,76.97,854.42,0.47,80821,-23.099,-48.926
2022,SP,17,Cabrália Paulista,3508306,3653,99,100,85.3,197,31,9.99,2010,CABRÁLIA PAULISTA,SP,Sudeste,0.694,0.619,0.811,0.667,73.68,507.41,0.4,4349,-22.456,-49.338
2022,SP,17,Campos Novos Paulista,3509809,3908,100,100,80,211,42,10,2010,CAMPOS NOVOS PAULISTA,SP,Sudeste,0.706,0.638,0.824,0.67,74.41,516.26,0.43,4520,-22.603,-50.003
2022,SP,17,Cândido Mota,3510005,29531,99.6,93,55.8,1595,770,6.45,2010,CÂNDIDO MOTA,SP,Sudeste,0.747,0.704,0.845,0.701,75.71,627.55,0.41,29731,-22.746,-50.387
2022,SP,17,Canitar,3510153,5081,92,100,88,274,53,9.87,2010,CANITAR,SP,Sudeste,0.68,0.605,0.791,0.658,72.46,480.52,0.4,4358,-23.006,-49.783
2022,SP,17,Cerqueira César,3511409,18279,90,100,64,987,419,6.59,2010,CERQUEIRA CÉSAR,SP,Sudeste,0.729,0.666,0.821,0.71,74.23,665.36,0.43,17272,-23.036,-49.166
2022,SP,17,Chavantes,3557204,11419,99,100,84,617,104,9.99,2010,CHAVANTES,SP,Sudeste,0.729,0.655,0.828,0.713,74.66,677.3,0.47,12055,-23.039,-49.709
2022,SP,17,Cruzália,3513306,1342,100,100,81.9,72,13,10,2010,CRUZÁLIA,SP,Sudeste,0.774,0.778,0.853,0.698,76.18,614.17,0.43,2272,-22.677,-50.794
2022,SP,17,Duartina,3514502,11150,100,100,83.5,602,99,10,2010,DUARTINA,SP,Sudeste,0.748,0.698,0.837,0.716,75.24,688.4,0.43,12199,-22.414,-49.404
2022,SP,17,Echaporã,3514700,4799,100,100,91,259,23,10,2010,ECHAPORÃ,SP,Sudeste,0.745,0.69,0.834,0.719,75.01,703.55,0.53,6286,-22.429,-50.201
2022,SP,17,Espírito Santo do Turvo,3515194,4213,94.1,100,83,228,50,8.49,2010,ESPÍRITO SANTO DO TURVO,SP,Sudeste,0.696,0.609,0.819,0.675,74.12,533.76,0.38,4230,-22.692,-49.43
2022,SP,17,Fernão,3515657,946,100,100,75.9,51,12,8.43,2010,FERNÃO,SP,Sudeste,0.703,0.617,0.843,0.668,75.55,510.09,0.4,1559,-22.359,-49.521
2022,SP,17,Florínea,3516101,2336,93.2,100,90,126,20,9.9,2010,FLORÍNIA,SP,Sudeste,0.713,0.652,0.82,0.678,74.19,544.03,0.46,2823,-22.903,-50.738
2022,SP,17,Gália,3516606,4784,100,100,76,258,62,8.44,2010,GÁLIA,SP,Sudeste,0.709,0.634,0.823,0.684,74.36,565.41,0.42,6935,-22.291,-49.553
2022,SP,17,Iaras,3519253,4354,100,100,88,235,28,9.8,2010,IARAS,SP,Sudeste,0.674,0.543,0.848,0.664,75.87,497.81,0.52,4284,-22.871,-49.163
2022,SP,17,Ibirarema,3519501,7321,100,100,89,395,43,10,2010,IBIRAREMA,SP,Sudeste,0.708,0.628,0.817,0.692,74.03,593.7,0.43,6689,-22.818,-50.073
2022,SP,17,Itatinga,3523503,19228,83.2,100,88.8,1038,271,7.75,2010,ITATINGA,SP,Sudeste,0.706,0.61,0.841,0.685,75.44,568.58,0.43,17981,-23.102,-48.616
2022,SP,17,João Ramalho,3525607,3908,100,100,87,211,27,9.7,2010,JOÃO RAMALHO,SP,Sudeste,0.741,0.71,0.818,0.701,74.1,627.59,0.42,4123,-22.25,-50.768
2022,SP,17,Lucianópolis,3527504,1909,100,100,75.6,103,25,8.11,2010,LUCIANÓPOLIS,SP,Sudeste,0.733,0.662,0.809,0.736,73.55,779.84,0.51,2247,-22.431,-49.523
2022,SP,17,Lupércio,3527801,4091,92.3,100,84.1,221,49,8.43,2010,LUPÉRCIO,SP,Sudeste,0.724,0.674,0.83,0.679,74.81,547.3,0.4,4344,-22.415,-49.817
2022,SP,17,Maracaí,3528809,12753,98.1,100,86.8,689,102,9.97,2010,MARACAÍ,SP,Sudeste,0.771,0.758,0.85,0.711,75.97,666.65,0.42,13303,-22.611,-50.667
2022,SP,17,Ocauçu,3533700,3429,93.1,100,72.7,185,60,7.5,2010,OCAUÇU,SP,Sudeste,0.717,0.653,0.83,0.679,74.81,547.66,0.39,4130,-22.439,-49.923
2022,SP,17,Óleo,3533809,1614,100,100,80,87,17,10,2010,ÓLEO,SP,Sudeste,0.73,0.637,0.858,0.713,76.46,676.94,0.43,2673,-22.941,-49.342
2022,SP,17,Ourinhos,3534708,112165,99.3,81.8,78,6057,2219,6.84,2010,OURINHOS,SP,Sudeste,0.778,0.727,0.859,0.753,76.53,868.91,0.5,102690,-22.979,-49.871
2022,SP,17,Palmital,3535309,20469,100,100,84,1105,177,10,2010,PALMITAL,SP,Sudeste,0.746,0.702,0.814,0.727,73.83,739.37,0.44,21011,-22.789,-50.218
2022,SP,17,Paraguaçu Paulista,3535507,41850,100,100,94.8,2260,118,10,2010,PARAGUAÇU PAULISTA,SP,Sudeste,0.762,0.739,0.836,0.717,75.18,694.42,0.45,40879,-22.413,-50.576
2022,SP,17,Pardinho,3536109,5173,70.5,100,92,279,98,6.98,2010,PARDINHO,SP,Sudeste,0.727,0.652,0.821,0.718,74.23,696.71,0.46,5544,-23.081,-48.374
2022,SP,17,Paulistânia,3536570,1250,95.3,100,84.2,68,13,9.93,2010,PAULISTÂNIA,SP,Sudeste,0.718,0.663,0.817,0.683,74.04,560.94,0.43,1764,-22.578,-49.403
2022,SP,17,Pedrinhas Paulista,3537156,2623,100,100,90,142,14,10,2010,PEDRINHAS PAULISTA,SP,Sudeste,0.774,0.739,0.837,0.749,75.19,847.63,0.56,2931,-22.815,-50.794
2022,SP,17,Platina,3539707,2839,87.5,100,80,153,46,7.86,2010,PLATINA,SP,Sudeste,0.719,0.652,0.824,0.691,74.41,591.1,0.49,3184,-22.638,-50.204
2022,SP,17,Pratânia,3541059,4070,100,100,66.2,220,74,7.8,2010,PRATÂNIA,SP,Sudeste,0.701,0.633,0.798,0.681,72.86,553.4,0.4,4599,-22.808,-48.666
2022,SP,17,Quatá,3541703,13428,95.3,100,91,725,96,9.93,2010,QUATÁ,SP,Sudeste,0.738,0.7,0.814,0.706,73.84,648.64,0.41,12684,-22.248,-50.698
2022,SP,17,Rancharia,3542206,26670,99,100,63,1440,542,7.54,2010,RANCHARIA,SP,Sudeste,0.751,0.683,0.861,0.72,76.64,707.37,0.47,28705,-22.229,-50.893
2022,SP,17,Ribeirão do Sul,3543204,3362,93.9,100,80,182,45,8.29,2010,RIBEIRÃO DO SUL,SP,Sudeste,0.747,0.676,0.818,0.753,74.05,866.43,0.59,4443,-22.784,-49.934
2022,SP,17,Salto Grande,3545407,8483,70,100,78.4,458,207,6.62,2010,SALTO GRANDE,SP,Sudeste,0.704,0.637,0.825,0.664,74.5,499.65,0.42,8679,-22.893,-49.986
2022,SP,17,Santa Cruz do Rio Pardo,3546405,44072,100,100,86,2380,333,10,2010,SANTA CRUZ DO RIO PARDO,SP,Sudeste,0.762,0.686,0.867,0.744,77,818.3,0.46,43593,-22.899,-49.633
2022,SP,17,São Pedro do Turvo,3550506,5526,100,100,93.4,298,20,10,2010,SÃO PEDRO DO TURVO,SP,Sudeste,0.703,0.636,0.826,0.661,74.58,488.08,0.39,7148,-22.747,-49.74
2022,SP,17,Tarumã,3553955,14456,100,100,74,781,203,8.01,2010,TARUMÃ,SP,Sudeste,0.753,0.68,0.852,0.738,76.13,787.79,0.54,12878,-22.747,-50.577
2022,SP,17,Ubirajara,3555505,3521,100,100,79.5,190,39,8.17,2010,UBIRAJARA,SP,Sudeste,0.727,0.674,0.829,0.689,74.72,580.57,0.42,4418,-22.527,-49.663
2022,SP,18,Aparecida d'Oeste,3502606,3376,100,100,89,182,20,10,2010,APARECIDA D'OESTE,SP,Sudeste,0.721,0.67,0.804,0.697,73.25,611.22,0.47,4423,-20.449,-50.88
2022,SP,18,Auriflama,3504206,13964,100,100,84.7,754,115,10,2010,AURIFLAMA,SP,Sudeste,0.773,0.738,0.84,0.746,75.41,829.68,0.47,14153,-20.686,-50.555
2022,SP,18,Dirce Reis,3513850,1367,96.6,100,84,74,14,9.95,2010,DIRCE REIS,SP,Sudeste,0.741,0.704,0.842,0.686,75.54,570.51,0.37,1676,-20.466,-50.606
2022,SP,18,Floreal,3515905,2342,100,100,75,126,32,8.38,2010,FLOREAL,SP,Sudeste,0.747,0.726,0.808,0.71,73.49,663.83,0.37,2999,-20.677,-50.145
2022,SP,18,General Salgado,3516903,9242,100,100,80.6,499,97,10,2010,GENERAL SALGADO,SP,Sudeste,0.747,0.702,0.808,0.734,73.5,771.92,0.45,10616,-20.648,-50.361
2022,SP,18,Guzolândia,3518909,4522,98.8,100,88,244,32,9.98,2010,GUZOLÂNDIA,SP,Sudeste,0.697,0.621,0.808,0.676,73.49,537.05,0.41,4708,-20.65,-50.662
2022,SP,18,Ilha Solteira,3520442,25230,91.5,100,54.4,1362,684,6.61,2010,ILHA SOLTEIRA,SP,Sudeste,0.812,0.782,0.871,0.786,77.24,1063.04,0.48,24986,-20.433,-51.343
2022,SP,18,Jales,3524808,46384,100,100,88,2505,301,10,2010,JALES,SP,Sudeste,0.776,0.73,0.855,0.75,76.32,850.11,0.46,46845,-20.269,-50.546
2022,SP,18,Marinópolis,3529104,1662,100,100,89,90,10,10,2010,MARINÓPOLIS,SP,Sudeste,0.731,0.694,0.825,0.681,74.5,553.24,0.43,2111,-20.441,-50.823
2022,SP,18,Monte Aprazível,3531407,23359,100,100,85,1261,189,10,2010,MONTE APRAZÍVEL,SP,Sudeste,0.785,0.72,0.861,0.781,76.64,1032.05,0.5,21662,-20.773,-49.714
2022,SP,18,Neves Paulista,3532504,8047,95,100,65.8,435,163,7.19,2010,NEVES PAULISTA,SP,Sudeste,0.754,0.707,0.823,0.737,74.38,784.55,0.4,8745,-20.846,-49.63
2022,SP,18,Nhandeara,3532603,9377,100,100,90.4,506,49,10,2010,NHANDEARA,SP,Sudeste,0.751,0.672,0.835,0.755,75.08,878.42,0.49,10492,-20.694,-50.038
2022,SP,18,Nova Canaã Paulista,3532843,759,100,100,80,41,8,10,2010,NOVA CANAÃ PAULISTA,SP,Sudeste,0.715,0.675,0.806,0.673,73.33,526.58,0.34,2091,-20.386,-50.949
2022,SP,18,Palmeira d'Oeste,3535200,6956,100,100,88,376,45,10,2010,PALMEIRA D'OESTE,SP,Sudeste,0.753,0.714,0.829,0.72,74.76,707.38,0.42,9536,-20.416,-50.762
2022,SP,18,Pontalinda,3540259,3916,90.1,100,82,211,55,8.15,2010,PONTALINDA,SP,Sudeste,0.702,0.604,0.847,0.677,75.84,541.56,0.38,4050,-20.441,-50.523
2022,SP,18,Rubinéia,3544509,2626,79.7,100,85.9,142,45,7.65,2010,RUBINÉIA,SP,Sudeste,0.759,0.726,0.844,0.713,75.64,676.48,0.39,2850,-20.179,-51.002
2022,SP,18,Santa Fé do Sul,3546603,31505,100,100,79.2,1701,354,8.65,2010,SANTA FÉ DO SUL,SP,Sudeste,0.784,0.751,0.84,0.763,75.41,924.06,0.49,29081,-20.211,-50.926
2022,SP,18,Santa Salete,3547650,882,100,100,86,48,7,10,2010,SANTA SALETE,SP,Sudeste,0.772,0.748,0.864,0.712,76.83,673.2,0.35,1447,-20.245,-50.688
2022,SP,18,Santana da Ponte Pensa,3547205,968,100,100,86,52,7,10,2010,SANTANA DA PONTE PENSA,SP,Sudeste,0.773,0.733,0.84,0.751,75.41,856.78,0.42,1640,-20.253,-50.797
2022,SP,18,São Francisco,3549003,2183,100,100,0,118,118,3.5,2010,SÃO FRANCISCO,SP,Sudeste,0.723,0.658,0.814,0.705,73.82,643.37,0.45,2782,-20.359,-50.697
2022,SP,18,São João das Duas Pontes,3549201,1953,100,100,89.6,105,11,10,2010,SÃO JOÃO DAS DUAS PONTES,SP,Sudeste,0.72,0.686,0.806,0.675,73.34,532.23,0.36,2566,-20.389,-50.378
2022,SP,18,São João de Iracema,3549250,1584,100,100,48,86,44,6.62,2010,SÃO JOÃO DE IRACEMA,SP,Sudeste,0.748,0.738,0.833,0.682,74.97,559.18,0.37,1780,-20.513,-50.352
2022,SP,18,Sebastianópolis do Sul,3551306,2784,97,100,90,150,19,9.96,2010,SEBASTIANÓPOLIS DO SUL,SP,Sudeste,0.773,0.74,0.835,0.748,75.08,840.63,0.42,3026,-20.655,-49.921
2022,SP,18,Suzanápolis,3552551,2712,98,100,79.7,146,32,8.55,2010,SUZANÁPOLIS,SP,Sudeste,0.699,0.631,0.813,0.665,73.75,500.45,0.41,3383,-20.501,-51.025
2022,SP,18,Três Fronteiras,3554904,4961,100,100,85,268,40,10,2010,TRÊS FRONTEIRAS,SP,Sudeste,0.753,0.726,0.829,0.71,74.73,663.71,0.41,5385,-20.235,-50.89
2022,SP,19,Alto Alegre,3501103,3215,96.5,100,85.6,174,30,9.65,2010,ALTO ALEGRE,SP,Sudeste,0.7,0.616,0.817,0.683,74,560.3,0.35,4100,-21.581,-50.164
2022,SP,19,Andradina,3502101,53433,98.6,100,74.9,2885,754,7.98,2010,ANDRADINA,SP,Sudeste,0.779,0.702,0.885,0.762,78.07,919.36,0.51,54037,-20.896,-51.379
2022,SP,19,Araçatuba,3502804,195368,98.5,100,93.4,10550,840,9.98,2010,ARAÇATUBA,SP,Sudeste,0.788,0.744,0.841,0.782,75.46,1036.09,0.52,180211,-21.209,-50.433
2022,SP,19,Avanhandava,3504404,11891,100,100,68.5,642,202,7.65,2010,AVANHANDAVA,SP,Sudeste,0.705,0.623,0.817,0.688,74,579.71,0.42,10128,-21.461,-49.95
2022,SP,19,Barbosa,3505104,6369,99,100,68,344,112,7.57,2010,BARBOSA,SP,Sudeste,0.699,0.599,0.843,0.676,75.57,536.37,0.4,6414,-21.267,-49.949
2022,SP,19,Bento de Abreu,3506201,2768,92.4,100,88.4,149,27,9.59,2010,BENTO DE ABREU,SP,Sudeste,0.744,0.712,0.82,0.706,74.17,647.1,0.38,2674,-21.271,-50.812
2022,SP,19,Bilac,3506409,7538,100,100,66.1,407,138,7.5,2010,BILAC,SP,Sudeste,0.768,0.722,0.845,0.743,75.7,816.06,0.43,7019,-21.403,-50.471
2022,SP,19,Birigui,3506508,122335,98,100,81.2,6606,1349,8.34,2010,BIRIGUI,SP,Sudeste,0.78,0.734,0.869,0.743,77.14,812.51,0.42,108239,-21.289,-50.34
2022,SP,19,Braúna,3507704,5067,100,100,69.3,274,85,7.69,2010,BRAÚNA,SP,Sudeste,0.737,0.664,0.83,0.725,74.77,726.71,0.43,4997,-21.499,-50.316
2022,SP,19,Brejo Alegre,3507753,2387,89.2,100,84,129,32,8.21,2010,BREJO ALEGRE,SP,Sudeste,0.71,0.618,0.826,0.702,74.54,631.02,0.39,2551,-21.166,-50.185
2022,SP,19,Buritama,3508108,16407,100,100,53,886,416,6.65,2010,BURITAMA,SP,Sudeste,0.763,0.72,0.839,0.736,75.31,779.78,0.44,15350,-21.066,-50.147
2022,SP,19,Castilho,3511003,16241,100,100,85.8,877,125,9.7,2010,CASTILHO,SP,Sudeste,0.731,0.686,0.827,0.688,74.63,579.36,0.46,17334,-20.872,-51.488
2022,SP,19,Coroados,3512506,5019,94.9,100,87,271,47,9.92,2010,COROADOS,SP,Sudeste,0.719,0.648,0.816,0.704,73.96,638.21,0.39,5224,-21.352,-50.281
2022,SP,19,Gastão Vidigal,3516804,4399,82.1,100,91,238,60,8.09,2010,GASTÃO VIDIGAL,SP,Sudeste,0.723,0.635,0.817,0.727,74.03,736.47,0.42,4185,-20.799,-50.187
2022,SP,19,Glicério,3517109,3566,85.4,100,82.3,193,57,7.85,2010,GLICÉRIO,SP,Sudeste,0.735,0.63,0.858,0.735,76.47,777.37,0.52,4545,-21.384,-50.211
2022,SP,19,Guaraçaí,3517802,6514,100,100,71.7,352,100,7.86,2010,GUARAÇAÍ,SP,Sudeste,0.719,0.663,0.803,0.699,73.2,619.41,0.42,8298,-21.028,-51.207
2022,SP,19,Guararapes,3518206,30780,100,100,50.5,1662,823,6.48,2010,GUARARAPES,SP,Sudeste,0.763,0.726,0.84,0.727,75.39,739.89,0.43,30482,-21.261,-50.643
2022,SP,19,Itapura,3523008,3991,80,100,39,216,148,5.23,2010,ITAPURA,SP,Sudeste,0.72,0.673,0.813,0.682,73.75,556.29,0.45,4249,-20.646,-51.509
2022,SP,19,José Bonifácio,3525706,34163,99,98,79.3,1845,425,8.46,2010,JOSÉ BONIFÁCIO,SP,Sudeste,0.777,0.717,0.869,0.752,77.14,863.34,0.45,32651,-21.053,-49.688
2022,SP,19,Lavínia,3526506,6141,100,100,61,332,129,7.17,2010,LAVÍNIA,SP,Sudeste,0.721,0.655,0.82,0.698,74.17,614.14,0.38,5107,-21.168,-51.04
2022,SP,19,Lourdes,3527256,1894,100,100,82.5,102,18,10,2010,LOURDES,SP,Sudeste,0.742,0.717,0.816,0.697,73.96,612,0.37,2101,-20.967,-50.224
2022,SP,19,Macaubal,3528106,7225,99,100,68,390,128,7.37,2010,MACAUBAL,SP,Sudeste,0.743,0.676,0.844,0.72,75.64,704.61,0.43,7625,-20.806,-49.964
2022,SP,19,Magda,3528304,2560,100,100,89,138,15,10,2010,MAGDA,SP,Sudeste,0.753,0.717,0.823,0.724,74.38,725.51,0.44,3200,-20.644,-50.226
2022,SP,19,Mirandópolis,3530102,26556,90,100,58,1434,685,6.44,2010,MIRANDÓPOLIS,SP,Sudeste,0.751,0.665,0.869,0.732,77.12,758.64,0.45,24287,-21.134,-51.102
2022,SP,19,Monções,3531001,1958,100,100,91,106,10,10,2010,MONÇÕES,SP,Sudeste,0.772,0.773,0.814,0.731,73.81,755.2,0.43,2128,-20.85,-50.092
2022,SP,19,Murutinga do Sul,3532108,2781,100,100,27.8,150,108,4.81,2010,MURUTINGA DO SUL,SP,Sudeste,0.726,0.643,0.847,0.703,75.84,636.47,0.43,4140,-20.993,-51.278
2022,SP,19,Nipoã,3532702,4780,92.5,100,92.6,258,37,9.59,2010,NIPOÃ,SP,Sudeste,0.713,0.636,0.814,0.701,73.81,628.33,0.37,4268,-20.913,-49.778
2022,SP,19,Nova Castilho,3532868,855,100,100,39,46,28,5.74,2010,NOVA CASTILHO,SP,Sudeste,0.756,0.755,0.823,0.694,74.38,600.13,0.36,1125,-20.763,-50.343
2022,SP,19,Nova Luzitânia,3533304,3783,76.9,100,93.1,204,58,7.8,2010,NOVA LUZITÂNIA,SP,Sudeste,0.743,0.719,0.808,0.705,73.49,643.07,0.35,3431,-20.856,-50.262
2022,SP,19,Penápolis,3537305,61219,100,100,65.3,3306,1147,7.44,2010,PENÁPOLIS,SP,Sudeste,0.759,0.68,0.859,0.748,76.55,840.16,0.47,58241,-21.42,-50.078
2022,SP,19,Pereira Barreto,3537404,23908,99,100,59,1291,537,7.29,2010,PEREIRA BARRETO,SP,Sudeste,0.766,0.732,0.845,0.728,75.71,743.94,0.48,24611,-20.638,-51.109
2022,SP,19,Planalto,3539608,4531,94,100,85.2,245,49,9.61,2010,PLANALTO,SP,Sudeste,0.719,0.639,0.853,0.683,76.19,560.64,0.37,4463,-21.034,-49.929
2022,SP,19,Poloni,3539905,5488,100,100,80,296,59,10,2010,POLONI,SP,Sudeste,0.766,0.717,0.853,0.736,76.18,778.41,0.39,5385,-20.785,-49.824
2022,SP,19,Promissão,3541604,34737,99,99,90,1876,221,9.98,2010,PROMISSÃO,SP,Sudeste,0.743,0.666,0.85,0.724,75.99,726,0.43,35314,-21.537,-49.858
2022,SP,19,Rubiácea,3544400,1830,100,100,84.2,99,16,9.7,2010,RUBIÁCEA,SP,Sudeste,0.721,0.668,0.82,0.684,74.17,565.62,0.37,2724,-21.301,-50.727
2022,SP,19,"Santo Antônio do
Aracanguá",3548054,6687,100,100,84.5,361,56,9.7,2010,SANTO ANTÔNIO DO ARACANGUÁ,SP,Sudeste,0.757,0.728,0.84,0.71,75.41,662.71,0.41,7609,-20.937,-50.496
2022,SP,19,Sud Mennucci,3552304,6649,100,100,85.8,359,51,10,2010,SUD MENNUCCI,SP,Sudeste,0.747,0.694,0.809,0.743,73.51,813.95,0.54,7410,-20.691,-50.924
2022,SP,19,Turiúba,3555208,1657,100,100,91.3,89,8,10,2010,TURIÚBA,SP,Sudeste,0.751,0.721,0.824,0.713,74.44,676.92,0.35,1928,-20.933,-50.108
2022,SP,19,Ubarana,3555356,5943,100,100,52.8,321,151,6.93,2010,UBARANA,SP,Sudeste,0.7,0.604,0.844,0.672,75.62,522.27,0.35,5286,-21.166,-49.718
2022,SP,19,União Paulista,3555703,1444,100,100,80,78,16,9.7,2010,UNIÃO PAULISTA,SP,Sudeste,0.749,0.699,0.863,0.697,76.75,610.77,0.35,1599,-20.887,-49.897
2022,SP,19,Valparaíso,3556305,25823,99.8,100,36,1394,893,5.54,2010,VALPARAÍSO,SP,Sudeste,0.725,0.643,0.825,0.719,74.47,701.02,0.45,20259,-21.228,-50.868
2022,SP,19,Zacarias,3557154,2189,95.9,100,87.6,118,19,9.94,2010,ZACARIAS,SP,Sudeste,0.729,0.674,0.826,0.695,74.56,605.79,0.39,2335,-21.052,-50.051
2022,SP,20,Álvaro de Carvalho,3501400,3377,99.2,100,95.1,182,10,9.99,2010,ÁLVARO DE CARVALHO,SP,Sudeste,0.688,0.605,0.805,0.669,73.31,512.99,0.38,3294,-22.089,-49.719
2022,SP,20,Arco-Íris,3503356,1000,98,100,81,54,11,8.63,2010,ARCO-ÍRIS,SP,Sudeste,0.722,0.694,0.809,0.671,73.52,520.01,0.4,1913,-21.773,-50.465
2022,SP,20,Clementina,3511904,8477,100,100,70.7,458,134,7.8,2010,CLEMENTINA,SP,Sudeste,0.725,0.66,0.821,0.704,74.25,640.87,0.37,7035,-21.56,-50.449
2022,SP,20,Dracena,3514403,43667,93.1,100,64.8,2358,935,7.32,2010,DRACENA,SP,Sudeste,0.776,0.737,0.842,0.752,75.51,862.86,0.44,41992,-21.483,-51.533
2022,SP,20,Gabriel Monteiro,3516507,2314,100,100,80.2,125,25,9.7,2010,GABRIEL MONTEIRO,SP,Sudeste,0.763,0.762,0.809,0.721,73.54,712.72,0.37,2708,-21.531,-50.555
2022,SP,20,Garça,3516705,40386,99.5,100,73,2181,598,8.21,2010,GARÇA,SP,Sudeste,0.769,0.728,0.849,0.737,75.93,786.83,0.5,42762,-22.211,-49.656
2022,SP,20,Getulina,3517000,8891,80,100,72,480,204,6.94,2010,GETULINA,SP,Sudeste,0.717,0.652,0.813,0.696,73.76,608.58,0.45,9580,-21.799,-49.929
2022,SP,20,Guaimbê,3517307,5073,99,99,75,274,73,8.26,2010,GUAIMBÊ,SP,Sudeste,0.728,0.689,0.83,0.675,74.77,532.14,0.4,5414,-21.91,-49.897
2022,SP,20,Herculândia,3519006,8789,96.3,95,84.6,475,107,8.4,2010,HERCULÂNDIA,SP,Sudeste,0.727,0.698,0.809,0.68,73.52,549.27,0.44,8688,-22.004,-50.385
2022,SP,20,Iacri,3519204,4932,97.6,100,79.6,266,59,8.51,2010,IACRI,SP,Sudeste,0.733,0.655,0.857,0.701,76.42,628.14,0.44,6419,-21.858,-50.689
2022,SP,20,Júlio Mesquita,3525805,4589,100,100,80.5,248,48,10,2010,JÚLIO MESQUITA,SP,Sudeste,0.716,0.686,0.813,0.659,73.76,482.86,0.41,4430,-22.009,-49.787
2022,SP,20,Lucélia,3527405,19072,97.9,100,71.9,1030,305,7.75,2010,LUCÉLIA,SP,Sudeste,0.752,0.695,0.841,0.728,75.48,743.2,0.46,18445,-21.72,-51.019
2022,SP,20,Luiziânia,3527702,5425,86.4,100,86.2,293,75,8.14,2010,LUIZIÂNIA,SP,Sudeste,0.702,0.623,0.815,0.682,73.88,557.06,0.35,5008,-21.676,-50.327
2022,SP,20,Monte Castelo,3531605,3292,99,100,82.2,178,33,9.99,2010,MONTE CASTELO,SP,Sudeste,0.741,0.709,0.814,0.706,73.81,646.15,0.38,4063,-21.299,-51.569
2022,SP,20,Nova Guataporanga,3533106,2025,100,100,92.5,109,8,9.7,2010,NOVA GUATAPORANGA,SP,Sudeste,0.726,0.644,0.842,0.707,75.52,652.36,0.41,2169,-21.334,-51.644
2022,SP,20,Nova Independência,3533205,3297,100,100,64.4,178,63,7.69,2010,NOVA INDEPENDÊNCIA,SP,Sudeste,0.735,0.711,0.827,0.675,74.63,533.68,0.36,2962,-21.104,-51.49
2022,SP,20,Pacaembu,3534906,10555,72.9,100,45,570,383,4.92,2010,PACAEMBU,SP,Sudeste,0.725,0.631,0.843,0.717,75.6,694.16,0.45,10857,-21.562,-51.261
2022,SP,20,Panorama,3535408,15487,92.8,100,94,836,107,9.89,2010,PANORAMA,SP,Sudeste,0.722,0.639,0.814,0.724,73.81,722.51,0.51,14525,-21.356,-51.86
2022,SP,20,Parapuã,3536000,8970,100,100,93.1,484,33,9.7,2010,PARAPUÃ,SP,Sudeste,0.737,0.696,0.83,0.693,74.78,597.44,0.42,10793,-21.783,-50.793
2022,SP,20,Paulicéia,3536406,6268,60,100,75.8,338,185,5.56,2010,PAULICÉIA,SP,Sudeste,0.711,0.64,0.811,0.692,73.64,592.42,0.44,6249,-21.318,-51.831
2022,SP,20,Piacatu,3537701,5374,97.1,100,81.3,290,61,8.29,2010,PIACATU,SP,Sudeste,0.732,0.684,0.843,0.681,75.57,553.99,0.4,5097,-21.592,-50.599
2022,SP,20,Pompéia,3540002,20772,95,100,88.8,1122,175,9.63,2010,POMPÉIA,SP,Sudeste,0.786,0.748,0.864,0.75,76.81,850.38,0.47,19896,-22.109,-50.172
2022,SP,20,Queiroz,3541802,2984,100,100,85,161,24,10,2010,QUEIROZ,SP,Sudeste,0.715,0.681,0.811,0.662,73.65,491.84,0.42,2779,-21.799,-50.24
2022,SP,20,Quintana,3542008,6164,100,100,90.3,333,32,9.7,2010,QUINTANA,SP,Sudeste,0.732,0.703,0.811,0.689,73.65,581.09,0.43,6004,-22.073,-50.308
2022,SP,20,Rinópolis,3543808,8640,99.5,100,86.1,467,67,9.99,2010,RINÓPOLIS,SP,Sudeste,0.723,0.644,0.843,0.696,75.59,606.9,0.43,9903,-21.726,-50.722
2022,SP,20,Salmourão,3545100,4818,88,100,74.1,260,91,7.25,2010,SALMOURÃO,SP,Sudeste,0.719,0.649,0.846,0.678,75.77,544.52,0.39,4775,-21.624,-50.861
2022,SP,20,Santa Mercedes,3547106,2559,96.2,100,88.2,138,21,9.94,2010,SANTA MERCEDES,SP,Sudeste,0.739,0.699,0.847,0.683,75.79,561.64,0.4,2831,-21.351,-51.755
2022,SP,20,Santópolis do Aguapeí,3548401,4693,88.7,100,89.4,253,52,8.18,2010,SANTÓPOLIS DO AGUAPEÍ,SP,Sudeste,0.74,0.719,0.83,0.68,74.78,551.5,0.35,4272,-21.638,-50.5
2022,SP,20,São João do Pau d'Alho,3549300,1699,100,100,84.9,92,14,9.7,2010,SÃO JOÃO DO PAU D'ALHO,SP,Sudeste,0.75,0.692,0.854,0.714,76.26,680.13,0.33,2098,-21.268,-51.666
2022,SP,20,Tupã,3555000,62983,100,100,90.3,3401,330,10,2010,TUPÃ,SP,Sudeste,0.771,0.704,0.852,0.764,76.1,926.96,0.54,62555,-21.935,-50.514
2022,SP,20,Tupi Paulista,3555109,12306,100,100,76.5,665,156,8.17,2010,TUPI PAULISTA,SP,Sudeste,0.769,0.715,0.835,0.762,75.08,914.36,0.49,13029,-21.381,-51.571
2022,SP,20,Vera Cruz,3556602,9393,98,100,86.1,507,79,9.97,2010,VERA CRUZ,SP,Sudeste,0.754,0.715,0.83,0.722,74.79,713.66,0.45,10664,-22.22,-49.819
2022,SP,21,Adamantina,3500105,33230,100,100,78.4,1794,388,8.6,2010,ADAMANTINA,SP,Sudeste,0.79,0.75,0.852,0.772,76.13,975.43,0.51,33490,-21.685,-51.073
2022,SP,21,Alfredo Marcondes,3500808,3514,99,100,83,190,34,9.99,2010,ALFREDO MARCONDES,SP,Sudeste,0.741,0.71,0.84,0.682,75.41,558.38,0.36,3880,-21.955,-51.413
2022,SP,21,Álvares Machado,3501301,22593,100,100,97,1220,37,10,2010,ÁLVARES MACHADO,SP,Sudeste,0.758,0.732,0.834,0.712,75.03,672.03,0.46,23494,-22.079,-51.472
2022,SP,21,Bastos,3505807,18045,99,100,71.8,974,282,8.11,2010,BASTOS,SP,Sudeste,0.751,0.718,0.848,0.696,75.86,609.76,0.41,20384,-21.922,-50.734
2022,SP,21,Borá,3507209,653,100,100,92,35,3,10,2010,BORÁ,SP,Sudeste,0.746,0.675,0.863,0.712,76.77,670.27,0.4,805,-22.27,-50.534
2022,SP,21,Caiabu,3508900,3415,90.6,100,84.7,184,43,8.35,2010,CAIABU,SP,Sudeste,0.729,0.691,0.823,0.682,74.37,559.13,0.37,4049,-22.012,-51.236
2022,SP,21,Emilianópolis,3515129,2677,98.7,100,80,145,30,8.61,2010,EMILIANÓPOLIS,SP,Sudeste,0.727,0.691,0.805,0.69,73.28,584.76,0.38,2997,-21.833,-51.483
2022,SP,21,Flora Rica,3515806,1131,89.4,100,76.5,61,19,7.49,2010,FLORA RICA,SP,Sudeste,0.727,0.723,0.796,0.668,72.74,511.8,0.4,1750,-21.676,-51.384
2022,SP,21,Flórida Paulista,3516002,11784,100,100,89.8,636,65,9.7,2010,FLÓRIDA PAULISTA,SP,Sudeste,0.715,0.646,0.807,0.702,73.44,632.97,0.41,11551,-21.615,-51.174
2022,SP,21,Indiana,3520608,4168,98.5,100,85,225,37,9.98,2010,INDIANA,SP,Sudeste,0.761,0.733,0.843,0.714,75.56,681.29,0.45,4816,-22.174,-51.252
2022,SP,21,Inúbia Paulista,3520806,3540,97,100,87.1,191,30,9.96,2010,INÚBIA PAULISTA,SP,Sudeste,0.759,0.75,0.849,0.688,75.95,576.91,0.37,3575,-21.77,-50.962
2022,SP,21,Irapuru,3521606,5908,100,100,80,319,64,9.7,2010,IRAPURU,SP,Sudeste,0.712,0.622,0.839,0.691,75.33,589.82,0.44,6385,-21.571,-51.345
2022,SP,21,Junqueirópolis,3526001,17251,100,100,87.1,932,120,9.7,2010,JUNQUEIRÓPOLIS,SP,Sudeste,0.745,0.662,0.86,0.727,76.61,737.14,0.43,17409,-21.515,-51.434
2022,SP,21,Lutécia,3527900,2086,100,100,92,113,9,10,2010,LUTÉCIA,SP,Sudeste,0.72,0.659,0.846,0.67,75.75,516.35,0.42,2711,-22.34,-50.392
2022,SP,21,Mariápolis,3528908,3283,97,100,85,177,31,9.66,2010,MARIÁPOLIS,SP,Sudeste,0.718,0.651,0.83,0.684,74.78,565.58,0.37,3913,-21.799,-51.181
2022,SP,21,Marília,3529005,231381,80,0,0,12495,12495,1.2,2010,MARÍLIA,SP,Sudeste,0.798,0.776,0.854,0.768,76.26,953.2,0.5,213961,-22.214,-49.946
2022,SP,21,Martinópolis,3529203,22501,100,100,80.7,1215,235,10,2010,MARTINÓPOLIS,SP,Sudeste,0.721,0.641,0.832,0.703,74.93,636,0.45,22940,-22.146,-51.171
2022,SP,21,Oriente,3534104,6136,100,100,75,331,83,8.38,2010,ORIENTE,SP,Sudeste,0.77,0.761,0.837,0.717,75.22,694.16,0.44,6085,-22.153,-50.091
2022,SP,21,Oscar Bressane,3534500,2154,95.1,100,88,116,19,9.93,2010,OSCAR BRESSANE,SP,Sudeste,0.749,0.715,0.823,0.713,74.36,675.35,0.45,2528,-22.318,-50.281
2022,SP,21,Osvaldo Cruz,3534609,29760,100,100,80,1607,321,9.7,2010,OSVALDO CRUZ,SP,Sudeste,0.762,0.713,0.837,0.74,75.22,797.55,0.46,29646,-21.797,-50.89
2022,SP,21,Ouro Verde,3534807,7982,95,100,77.2,431,115,7.9,2010,OURO VERDE,SP,Sudeste,0.692,0.612,0.814,0.666,73.81,504.63,0.39,7789,-21.489,-51.7
2022,SP,21,Piquerobi,3538303,2797,97,100,92,151,16,9.96,2010,PIQUEROBI,SP,Sudeste,0.711,0.644,0.836,0.669,75.18,514.47,0.42,3504,-21.868,-51.729
2022,SP,21,Pracinha,3540853,2073,100,100,76.3,112,27,8.16,2010,PRACINHA,SP,Sudeste,0.696,0.629,0.814,0.658,73.82,480.62,0.38,1521,-21.851,-51.087
2022,SP,21,Ribeirão dos Índios,3543238,1880,96.8,100,87,102,16,9.95,2010,RIBEIRÃO DOS ÍNDIOS,SP,Sudeste,0.721,0.701,0.809,0.661,73.52,489.94,0.38,2183,-21.837,-51.604
2022,SP,21,Sagres,3544707,1843,91.7,100,84.2,100,23,8.1,2010,SAGRES,SP,Sudeste,0.73,0.677,0.83,0.692,74.78,592.88,0.47,2395,-21.884,-50.956
2022,SP,21,Santo Expedito,3548302,2793,97.5,100,90,151,18,9.96,2010,SANTO EXPEDITO,SP,Sudeste,0.732,0.714,0.828,0.664,74.69,497.6,0.41,2799,-21.851,-51.392
2022,SP,22,Anhumas,3502408,3414,100,100,85,184,28,10,2010,ANHUMAS,SP,Sudeste,0.741,0.706,0.845,0.683,75.67,561.82,0.42,3702,-22.295,-51.387
2022,SP,22,Caiuá,3509106,2305,100,100,70,124,37,8.05,2010,CAIUÁ,SP,Sudeste,0.697,0.635,0.802,0.665,73.13,500.47,0.45,4824,-21.832,-51.998
2022,SP,22,Estrela do Norte,3515301,2191,100,100,85,118,18,10,2010,ESTRELA DO NORTE,SP,Sudeste,0.74,0.714,0.818,0.693,74.1,597.74,0.43,2614,-22.488,-51.66
2022,SP,22,Euclides da Cunha Paulista,3515350,5917,86.6,100,79,320,101,7.75,2010,EUCLIDES DA CUNHA PAULISTA,SP,Sudeste,0.704,0.655,0.802,0.663,73.13,493.91,0.45,9438,-22.561,-52.59
2022,SP,22,Iepê,3519907,7306,95,100,97.9,395,28,9.93,2010,IEPÊ,SP,Sudeste,0.736,0.7,0.814,0.7,73.85,623.96,0.44,7560,-22.661,-51.076
2022,SP,22,Marabá Paulista,3528700,2688,97,100,83,145,28,9.96,2010,MARABÁ PAULISTA,SP,Sudeste,0.677,0.591,0.809,0.65,73.54,457.56,0.39,3564,-22.108,-51.963
2022,SP,22,Mirante do Paranapanema,3530201,10843,84.1,100,86,586,162,7.96,2010,MIRANTE DO PARANAPANEMA,SP,Sudeste,0.724,0.674,0.841,0.67,75.45,516.3,0.5,16718,-22.292,-51.906
2022,SP,22,Nantes,3532157,2887,100,100,80,156,31,10,2010,NANTES,SP,Sudeste,0.714,0.702,0.79,0.655,72.41,472.28,0.35,2707,-22.621,-51.237
2022,SP,22,Narandiba,3532207,3584,100,100,89,194,21,10,2010,NARANDIBA,SP,Sudeste,0.718,0.67,0.839,0.659,75.33,482.74,0.36,4266,-22.407,-51.524
2022,SP,22,Pirapozinho,3539202,26578,94.5,100,68,1435,513,7.6,2010,PIRAPOZINHO,SP,Sudeste,0.776,0.733,0.863,0.74,76.79,798,0.52,24559,-22.275,-51.5
2022,SP,22,Presidente Bernardes,3541208,10015,81.6,100,94,541,126,8.21,2010,PRESIDENTE BERNARDES,SP,Sudeste,0.757,0.719,0.839,0.718,75.34,695.29,0.46,13387,-22.006,-51.553
2022,SP,22,Presidente Epitácio,3541307,41581,93.1,100,85,2245,468,8.54,2010,PRESIDENTE EPITÁCIO,SP,Sudeste,0.75,0.7,0.845,0.714,75.72,680.56,0.47,40740,-21.763,-52.116
2022,SP,22,Presidente Prudente,3541406,227221,100,100,96.9,12270,380,9.7,2010,PRESIDENTE PRUDENTE,SP,Sudeste,0.806,0.774,0.858,0.788,76.49,1080.22,0.54,205525,-22.126,-51.389
2022,SP,22,Presidente Venceslau,3541505,37935,98,100,90,2048,242,9.47,2010,PRESIDENTE VENCESLAU,SP,Sudeste,0.763,0.708,0.837,0.749,75.19,846.18,0.49,36292,-21.876,-51.844
2022,SP,22,Regente Feijó,3542404,18919,100,100,86.5,1022,138,10,2010,REGENTE FEIJÓ,SP,Sudeste,0.768,0.752,0.818,0.735,74.1,774.14,0.46,18456,-22.221,-51.303
2022,SP,22,Rosana,3544251,12828,79.5,100,88.5,693,205,7.76,2010,ROSANA,SP,Sudeste,0.764,0.728,0.818,0.749,74.1,843.59,0.6,19371,-22.58,-53.059
2022,SP,22,Sandovalina,3545506,3074,87.7,100,84,166,44,8.11,2010,SANDOVALINA,SP,Sudeste,0.709,0.659,0.812,0.665,73.73,502.4,0.43,3662,-22.456,-51.763
2022,SP,22,Santo Anastácio,3547700,19434,97.8,100,92.6,1049,99,9.97,2010,SANTO ANASTÁCIO,SP,Sudeste,0.753,0.689,0.854,0.725,76.22,726.34,0.52,20413,-21.977,-51.652
2022,SP,22,Taciba,3552908,5410,100,100,83,292,50,10,2010,TACIBA,SP,Sudeste,0.723,0.684,0.809,0.682,73.52,559.1,0.38,5683,-22.39,-51.285
2022,SP,22,Tarabai,3553906,7035,88.1,100,78.8,380,116,7.83,2010,TARABAI,SP,Sudeste,0.726,0.697,0.823,0.666,74.37,505.51,0.4,6567,-22.303,-51.559
2022,SP,22,Teodoro Sampaio,3554300,18996,100,100,83.5,1026,169,10,2010,TEODORO SAMPAIO,SP,Sudeste,0.741,0.679,0.856,0.699,76.38,619.79,0.47,21135,-22.533,-52.168
